timestamp,loop_hz,mode,speed_pwm,steer_deg,yaw_deg,roll_deg,pitch_deg,car_x,car_y,lane_anchor,target_x,lateral_err_px,lane_confidence,active_sign,yolo_labels
08:32:46.487,0.5,MANUAL,0,0,0.0,0.0,0.0,0.5,0.5,,320.0,0.0,0.0,,
08:32:47.553,11.0,MANUAL,0,0,0.0,0.0,0.0,0.5,0.5,CENTER_DUAL,288.6,-31.4,1.0,,
08:32:48.612,13.7,MANUAL,0,0,0.0,0.0,0.0,0.5,0.5,CENTER_DUAL,290.1,-29.9,1.0,,
08:32:49.631,14.1,MANUAL,0,0,0.0,0.0,0.0,0.5,0.5,CENTER_DUAL,291.8,-28.2,1.0,,
08:32:50.638,13.8,MANUAL,0,0,0.0,0.0,0.0,0.5,0.5,CENTER_DUAL,290.3,-29.7,1.0,,
08:32:51.707,13.9,MANUAL,0,0,0.0,0.0,0.0,0.5,0.5,CENTER_DUAL,289.6,-30.4,1.0,,
08:32:52.730,13.4,MANUAL,0,0,0.0,0.0,0.0,0.5,0.5,CENTER_DUAL,292.6,-27.4,1.0,,
08:32:53.773,13.3,MANUAL,0,0,0.0,0.0,0.0,0.5,0.5,CENTER_DUAL,290.3,-29.7,1.0,,
08:32:54.835,13.6,MANUAL,0,0,0.0,0.0,0.0,0.5,0.5,CENTER_DUAL,289.4,-30.6,1.0,,
08:32:55.904,12.6,MANUAL,0,0,0.0,0.0,0.0,0.5,0.5,CENTER_DUAL,288.4,-31.6,1.0,,
08:32:56.966,13.4,MANUAL,0,0,0.0,0.0,0.0,0.5,0.5,CENTER_DUAL,283.0,-37.0,1.0,,
08:32:58.040,13.5,MANUAL,0,0,0.0,0.0,0.0,0.5,0.5,CENTER_DUAL,290.9,-29.1,1.0,,
08:32:59.112,12.5,MANUAL,0,0,0.0,0.0,0.0,0.5,0.5,RIGHT_LANE_ONLY,300.2,-19.8,0.5,,
08:33:00.124,12.5,MANUAL,0,0,0.0,0.0,0.0,0.5,0.5,CENTER_DUAL,292.8,-27.2,1.0,,
08:33:01.126,12.7,MANUAL,0,0,0.0,0.0,0.0,0.5,0.5,RIGHT_LANE_ONLY,288.7,-31.3,0.5,,
08:33:02.187,13.1,MANUAL,0,0,0.0,0.0,0.0,0.5,0.5,CENTER_DUAL,281.7,-38.3,1.0,,
08:33:03.205,12.8,MANUAL,0,0,0.0,0.0,0.0,0.5,0.5,CENTER_DUAL,291.2,-28.8,1.0,,
08:33:04.220,13.3,MANUAL,0,0,0.0,0.0,0.0,0.5,0.5,CENTER_DUAL,289.8,-30.2,1.0,,
08:33:05.237,12.8,MANUAL,0,0,0.0,0.0,0.0,0.5,0.5,CENTER_DUAL,289.1,-30.9,1.0,,
08:33:06.274,12.6,MANUAL,0,0,0.0,0.0,0.0,0.5,0.5,CENTER_DUAL,288.8,-31.2,1.0,,
08:33:07.311,13.0,MANUAL,0,0,0.0,0.0,0.0,0.5,0.5,CENTER_DUAL,288.9,-31.1,1.0,,
08:33:08.356,12.8,MANUAL,0,0,0.0,0.0,0.0,0.5,0.5,CENTER_DUAL,289.4,-30.6,1.0,,
08:33:09.382,12.4,MANUAL,0,0,0.0,0.0,0.0,0.5,0.5,CENTER_DUAL,289.6,-30.4,1.0,,
08:33:10.434,12.4,MANUAL,0,0,0.0,0.0,0.0,0.5,0.5,CENTER_DUAL,289.8,-30.2,1.0,,
08:33:11.499,11.9,MANUAL,0,0,0.0,0.0,0.0,0.5,0.5,CENTER_DUAL,289.8,-30.2,1.0,,
08:33:12.566,12.4,MANUAL,0,0,0.0,0.0,0.0,0.5,0.5,CENTER_DUAL,293.1,-26.9,1.0,,
08:33:13.634,12.1,MANUAL,0,0,0.0,0.0,0.0,0.5,0.5,CENTER_DUAL,301.5,-18.5,1.0,,
08:33:14.637,11.2,MANUAL,0,0,0.0,0.0,0.0,0.5,0.5,CENTER_DUAL,305.3,-14.7,1.0,,
08:33:15.641,12.0,MANUAL,0,0,0.0,0.0,0.0,0.5,0.5,CENTER_DUAL,306.9,-13.1,1.0,,
08:33:16.668,11.5,MANUAL,0,0,0.0,0.0,0.0,0.5,0.5,CENTER_DUAL,307.9,-12.1,1.0,,
08:33:17.710,11.8,MANUAL,0,0,0.0,0.0,0.0,0.5,0.5,CENTER_DUAL,308.3,-11.7,1.0,,
08:33:18.770,11.9,MANUAL,0,0,0.0,0.0,0.0,0.5,0.5,CENTER_DUAL,308.6,-11.4,1.0,,
08:33:19.816,13.1,MANUAL,0,0,0.0,0.0,0.0,0.5,0.5,CENTER_DUAL,308.7,-11.3,1.0,,
08:33:20.892,12.7,MANUAL,0,0,0.0,0.0,0.0,0.5,0.5,CENTER_DUAL,308.7,-11.3,1.0,,
08:33:21.896,12.0,MANUAL,0,0,0.0,0.0,0.0,0.5,0.5,CENTER_DUAL,303.4,-16.6,1.0,,
08:33:22.973,11.5,MANUAL,0,0,0.0,0.0,0.0,0.5,0.5,CENTER_DUAL,296.8,-23.2,1.0,,
08:33:23.988,11.7,MANUAL,0,0,0.0,0.0,0.0,0.5,0.5,CENTER_DUAL,298.0,-22.0,1.0,,
08:33:25.014,12.6,MANUAL,0,0,0.0,0.0,0.0,0.5,0.5,CENTER_DUAL,292.2,-27.8,1.0,,
08:33:26.037,12.2,MANUAL,0,0,0.0,0.0,0.0,0.5,0.5,CENTER_DUAL,293.7,-26.3,1.0,,
08:33:27.038,12.6,MANUAL,0,0,0.0,0.0,0.0,0.5,0.5,CENTER_DUAL,301.8,-18.2,1.0,,
08:33:28.097,11.7,MANUAL,0,0,0.0,0.0,0.0,0.5,0.5,CENTER_DUAL,304.4,-15.6,1.0,,
08:33:29.103,11.3,MANUAL,0,0,0.0,0.0,0.0,0.5,0.5,CENTER_DUAL,295.7,-24.3,1.0,,
08:33:30.106,11.7,MANUAL,0,0,0.0,0.0,0.0,0.5,0.5,CENTER_DUAL,297.0,-23.0,1.0,,
08:33:31.182,12.3,MANUAL,0,0,0.0,0.0,0.0,0.5,0.5,CENTER_DUAL,299.1,-20.9,1.0,,
08:33:32.254,12.5,MANUAL,0,0,0.0,0.0,0.0,0.5,0.5,CENTER_DUAL,294.4,-25.6,1.0,,
08:33:33.275,12.7,MANUAL,0,0,0.0,0.0,0.0,0.5,0.5,CENTER_DUAL,292.9,-27.1,1.0,,
08:33:34.345,12.4,MANUAL,0,0,0.0,0.0,0.0,0.5,0.5,CENTER_DUAL,296.0,-24.0,1.0,,
08:33:35.347,12.6,MANUAL,0,0,0.0,0.0,0.0,0.5,0.5,CENTER_DUAL,299.8,-20.2,1.0,,
08:33:36.357,12.2,MANUAL,0,0,0.0,0.0,0.0,0.5,0.5,CENTER_DUAL,299.6,-20.4,1.0,,
08:33:37.398,14.4,MANUAL,0,0,0.0,0.0,0.0,0.5,0.5,CENTER_DUAL,299.9,-20.1,1.0,,
08:33:38.410,14.2,MANUAL,0,0,0.0,0.0,0.0,0.5,0.5,CENTER_DUAL,305.7,-14.3,1.0,,
08:33:39.425,14.4,MANUAL,0,0,0.0,0.0,0.0,0.5,0.5,CENTER_DUAL,294.9,-25.1,1.0,,
08:33:40.433,13.8,MANUAL,0,0,0.0,0.0,0.0,0.5,0.5,CENTER_DUAL,294.6,-25.4,1.0,,
08:33:41.467,13.3,MANUAL,0,0,0.0,0.0,0.0,0.5,0.5,CENTER_DUAL,301.7,-18.3,1.0,,
08:33:42.519,13.1,MANUAL,0,0,0.0,0.0,0.0,0.5,0.5,CENTER_DUAL,304.4,-15.6,1.0,,
08:33:43.536,14.1,MANUAL,0,0,0.0,0.0,0.0,0.5,0.5,CENTER_DUAL,305.9,-14.1,1.0,,
08:33:44.602,13.9,MANUAL,0,0,0.0,0.0,0.0,0.5,0.5,CENTER_DUAL,307.0,-13.0,1.0,,
08:33:45.672,13.7,MANUAL,0,0,0.0,0.0,0.0,0.5,0.5,CENTER_DUAL,296.3,-23.7,1.0,,
08:33:46.683,14.6,MANUAL,0,0,0.0,0.0,0.0,0.5,0.5,RIGHT_LANE_ONLY,310.0,-10.0,0.5,,
08:33:47.688,14.0,MANUAL,0,0,0.0,0.0,0.0,0.5,0.5,CENTER_DUAL,291.3,-28.7,1.0,,
08:33:48.701,13.1,MANUAL,0,0,0.0,0.0,0.0,0.5,0.5,CENTER_DUAL,290.0,-30.0,1.0,,
08:33:49.770,13.5,MANUAL,0,0,0.0,0.0,0.0,0.5,0.5,CENTER_DUAL,289.0,-31.0,1.0,,
08:33:50.842,13.6,MANUAL,0,0,0.0,0.0,0.0,0.5,0.5,RIGHT_LANE_ONLY,290.6,-29.4,0.5,,
08:33:51.905,13.4,MANUAL,0,0,0.0,0.0,0.0,0.5,0.5,CENTER_DUAL,287.3,-32.7,1.0,,
08:33:52.910,13.6,MANUAL,0,0,0.0,0.0,0.0,0.5,0.5,CENTER_DUAL,290.4,-29.6,1.0,,
08:33:53.961,14.5,MANUAL,0,0,0.0,0.0,0.0,0.5,0.5,CENTER_DUAL,287.9,-32.1,1.0,,
08:33:54.967,13.8,MANUAL,0,0,0.0,0.0,0.0,0.5,0.5,CENTER_DUAL,287.8,-32.2,1.0,,
08:33:55.976,14.4,MANUAL,0,0,0.0,0.0,0.0,0.5,0.5,RIGHT_LANE_ONLY,290.9,-29.1,0.5,,
08:33:56.981,14.0,MANUAL,0,0,0.0,0.0,0.0,0.5,0.5,RIGHT_LANE_ONLY,291.5,-28.5,0.5,,
08:33:57.990,14.1,MANUAL,0,0,0.0,0.0,0.0,0.5,0.5,RIGHT_LANE_ONLY,290.9,-29.1,0.5,,
08:33:58.997,14.3,MANUAL,0,0,0.0,0.0,0.0,0.5,0.5,RIGHT_LANE_ONLY,290.7,-29.3,0.5,,
08:34:00.045,14.2,MANUAL,0,0,0.0,0.0,0.0,0.5,0.5,RIGHT_LANE_ONLY,290.8,-29.2,0.5,,
08:34:01.048,13.4,MANUAL,0,0,0.0,0.0,0.0,0.5,0.5,RIGHT_LANE_ONLY,290.6,-29.4,0.5,,
08:34:02.072,13.2,MANUAL,0,0,0.0,0.0,0.0,0.5,0.5,RIGHT_LANE_ONLY,290.8,-29.2,0.5,,
08:34:03.140,13.8,MANUAL,0,0,0.0,0.0,0.0,0.5,0.5,RIGHT_LANE_ONLY,290.8,-29.2,0.5,,
08:34:04.175,14.1,MANUAL,0,0,0.0,0.0,0.0,0.5,0.5,CENTER_DUAL,290.4,-29.6,1.0,,
08:34:05.231,14.7,MANUAL,0,0,0.0,0.0,0.0,0.5,0.5,CENTER_DUAL,309.7,-10.3,1.0,,
08:34:06.237,14.3,MANUAL,0,0,0.0,0.0,0.0,0.5,0.5,CENTER_DUAL,311.4,-8.6,1.0,,
08:34:07.299,14.7,MANUAL,0,0,0.0,0.0,0.0,0.5,0.5,CENTER_DUAL,313.3,-6.7,1.0,,
08:34:08.352,13.6,MANUAL,0,0,0.0,0.0,0.0,0.5,0.5,CENTER_DUAL,311.9,-8.1,1.0,,
08:34:09.382,14.4,MANUAL,0,0,0.0,0.0,0.0,0.5,0.5,CENTER_DUAL,313.2,-6.8,1.0,,
08:34:10.423,14.4,MANUAL,0,0,0.0,0.0,0.0,0.5,0.5,CENTER_DUAL,319.6,-0.4,1.0,,
08:34:11.489,14.0,MANUAL,0,0,0.0,0.0,0.0,0.5,0.5,CENTER_DUAL,322.1,2.1,1.0,,
08:34:12.551,14.2,MANUAL,0,0,0.0,0.0,0.0,0.5,0.5,CENTER_DUAL,314.9,-5.1,1.0,,
08:34:13.567,13.8,MANUAL,0,0,0.0,0.0,0.0,0.5,0.5,RIGHT_LANE_ONLY,306.6,-13.4,0.5,,
08:34:14.597,13.4,MANUAL,0,0,0.0,0.0,0.0,0.5,0.5,CENTER_DUAL,305.1,-14.9,1.0,,
08:34:15.660,13.9,MANUAL,0,0,0.0,0.0,0.0,0.5,0.5,CENTER_DUAL,318.5,-1.5,1.0,,
08:34:16.678,13.4,MANUAL,0,0,0.0,0.0,0.0,0.5,0.5,CENTER_DUAL,317.7,-2.3,1.0,,
08:34:17.686,14.2,MANUAL,0,0,0.0,0.0,0.0,0.5,0.5,CENTER_DUAL,322.1,2.1,1.0,,
08:34:18.752,14.1,MANUAL,0,0,0.0,0.0,0.0,0.5,0.5,CENTER_DUAL,301.5,-18.5,1.0,,
08:34:19.801,13.9,MANUAL,0,0,0.0,0.0,0.0,0.5,0.5,CENTER_DUAL,318.4,-1.6,1.0,,
08:34:20.828,14.3,MANUAL,0,0,0.0,0.0,0.0,0.5,0.5,CENTER_DUAL,326.0,6.0,1.0,,
08:34:21.888,14.2,MANUAL,0,0,0.0,0.0,0.0,0.5,0.5,CENTER_DUAL,329.1,9.1,1.0,,
08:34:22.944,13.9,MANUAL,0,0,0.0,0.0,0.0,0.5,0.5,CENTER_DUAL,332.7,12.7,1.0,,
08:34:23.964,14.8,MANUAL,0,0,0.0,0.0,0.0,0.5,0.5,CENTER_DUAL,298.6,-21.4,1.0,,
08:34:25.018,13.8,MANUAL,0,0,0.0,0.0,0.0,0.5,0.5,RIGHT_LANE_ONLY,303.0,-17.0,0.5,,
08:34:26.038,14.1,MANUAL,0,0,0.0,0.0,0.0,0.5,0.5,RIGHT_LANE_ONLY,304.6,-15.4,0.5,,
08:34:27.111,14.5,MANUAL,0,0,0.0,0.0,0.0,0.5,0.5,RIGHT_LANE_ONLY,311.4,-8.6,0.5,,
08:34:28.145,14.6,MANUAL,0,0,0.0,0.0,0.0,0.5,0.5,RIGHT_LANE_ONLY,302.7,-17.3,0.5,,
08:34:29.200,13.8,MANUAL,0,0,0.0,0.0,0.0,0.5,0.5,CENTER_DUAL,325.3,5.3,1.0,,
08:34:30.268,14.8,MANUAL,0,0,0.0,0.0,0.0,0.5,0.5,CENTER_DUAL,322.7,2.7,1.0,,
08:34:31.298,13.3,MANUAL,0,0,0.0,0.0,0.0,0.5,0.5,CENTER_DUAL,288.7,-31.3,1.0,,
08:34:32.304,15.0,MANUAL,0,0,0.0,0.0,0.0,0.5,0.5,CENTER_DUAL,289.6,-30.4,1.0,,
08:34:33.352,14.0,MANUAL,0,0,0.0,0.0,0.0,0.5,0.5,CENTER_DUAL,289.9,-30.1,1.0,,
08:34:34.376,14.9,MANUAL,0,0,0.0,0.0,0.0,0.5,0.5,CENTER_DUAL,289.1,-30.9,1.0,,
08:34:35.416,13.4,MANUAL,0,0,0.0,0.0,0.0,0.5,0.5,CENTER_DUAL,290.0,-30.0,1.0,,
08:34:36.477,14.4,MANUAL,0,0,0.0,0.0,0.0,0.5,0.5,CENTER_DUAL,289.3,-30.7,1.0,,
08:34:37.545,12.0,MANUAL,0,0,0.0,0.0,0.0,0.5,0.5,CENTER_DUAL,290.3,-29.7,1.0,,
08:34:38.552,14.3,MANUAL,0,0,0.0,0.0,0.0,0.5,0.5,CENTER_DUAL,290.2,-29.8,1.0,,
08:34:39.585,14.6,MANUAL,0,0,0.0,0.0,0.0,0.5,0.5,CENTER_DUAL,290.2,-29.8,1.0,,
08:34:40.652,13.6,MANUAL,0,0,0.0,0.0,0.0,0.5,0.5,CENTER_DUAL,290.5,-29.5,1.0,,
08:34:41.654,14.3,MANUAL,0,0,0.0,0.0,0.0,0.5,0.5,CENTER_DUAL,289.8,-30.2,1.0,,
08:34:42.712,13.8,MANUAL,0,0,0.0,0.0,0.0,0.5,0.5,CENTER_DUAL,289.4,-30.6,1.0,,
08:34:43.765,14.4,MANUAL,0,0,0.0,0.0,0.0,0.5,0.5,CENTER_DUAL,289.0,-31.0,1.0,,
08:34:44.806,14.6,MANUAL,0,0,0.0,0.0,0.0,0.5,0.5,CENTER_DUAL,288.6,-31.4,1.0,,
08:34:45.855,13.6,MANUAL,0,0,0.0,0.0,0.0,0.5,0.5,CENTER_DUAL,289.1,-30.9,1.0,,
08:34:46.912,14.4,MANUAL,0,0,0.0,0.0,0.0,0.5,0.5,CENTER_DUAL,306.7,-13.3,1.0,,
08:34:47.965,14.4,MANUAL,0,0,0.0,0.0,0.0,0.5,0.5,CENTER_DUAL,293.7,-26.3,1.0,,
08:34:49.017,14.4,MANUAL,0,0,0.0,0.0,0.0,0.5,0.5,CENTER_DUAL,288.0,-32.0,1.0,,
08:34:50.056,14.4,MANUAL,0,0,0.0,0.0,0.0,0.5,0.5,CENTER_DUAL,287.1,-32.9,1.0,,
08:34:51.109,13.4,MANUAL,0,0,0.0,0.0,0.0,0.5,0.5,CENTER_DUAL,287.4,-32.6,1.0,,
08:34:52.175,14.2,MANUAL,0,0,0.0,0.0,0.0,0.5,0.5,CENTER_DUAL,292.7,-27.3,1.0,,
08:34:53.186,14.1,MANUAL,0,0,0.0,0.0,0.0,0.5,0.5,CENTER_DUAL,394.5,74.5,1.0,,
08:34:54.205,14.1,MANUAL,0,0,0.0,0.0,0.0,0.5,0.5,CENTER_DUAL,418.0,98.0,1.0,,
08:34:55.281,14.3,MANUAL,0,0,0.0,0.0,0.0,0.5,0.5,CENTER_DUAL,418.5,98.5,1.0,,
08:34:56.294,12.8,MANUAL,0,0,0.0,0.0,0.0,0.5,0.5,CENTER_DUAL,412.2,92.2,1.0,,
08:34:57.314,13.5,MANUAL,0,0,0.0,0.0,0.0,0.5,0.5,CENTER_DUAL,420.4,100.4,1.0,,
08:34:58.346,14.1,MANUAL,0,0,0.0,0.0,0.0,0.5,0.5,CENTER_DUAL,420.9,100.9,1.0,,
08:34:59.368,13.5,MANUAL,0,0,0.0,0.0,0.0,0.5,0.5,CENTER_DUAL,268.9,-51.1,1.0,,
08:35:00.368,14.1,MANUAL,0,0,0.0,0.0,0.0,0.5,0.5,CENTER_DUAL,262.4,-57.6,1.0,,
08:35:01.427,14.7,MANUAL,0,0,0.0,0.0,0.0,0.5,0.5,CENTER_DUAL,263.0,-57.0,1.0,,
08:35:02.466,14.2,MANUAL,0,0,0.0,0.0,0.0,0.5,0.5,CENTER_DUAL,250.6,-69.4,1.0,,
08:35:03.474,14.1,MANUAL,0,0,0.0,0.0,0.0,0.5,0.5,CENTER_DUAL,240.2,-79.8,1.0,,
08:35:04.483,14.1,MANUAL,0,0,0.0,0.0,0.0,0.5,0.5,CENTER_DUAL,228.8,-91.2,1.0,,
08:35:05.546,14.3,MANUAL,0,0,0.0,0.0,0.0,0.5,0.5,CENTER_DUAL,247.8,-72.2,1.0,,
08:35:06.550,13.8,MANUAL,0,0,0.0,0.0,0.0,0.5,0.5,CENTER_DUAL,261.8,-58.2,1.0,,
08:35:07.565,13.3,MANUAL,0,0,0.0,0.0,0.0,0.5,0.5,CENTER_DUAL,287.5,-32.5,1.0,,
08:35:08.617,14.3,MANUAL,0,0,0.0,0.0,0.0,0.5,0.5,CENTER_DUAL,286.0,-34.0,1.0,,
08:35:09.677,13.9,MANUAL,0,0,0.0,0.0,0.0,0.5,0.5,CENTER_DUAL,282.7,-37.3,1.0,,
08:35:10.709,13.2,MANUAL,0,0,0.0,0.0,0.0,0.5,0.5,RIGHT_LANE_ONLY,401.0,81.0,0.5,,
08:35:11.751,14.7,MANUAL,0,0,0.0,0.0,0.0,0.5,0.5,CENTER_DUAL,292.3,-27.7,1.0,,
08:35:12.793,14.4,MANUAL,0,0,0.0,0.0,0.0,0.5,0.5,CENTER_DUAL,290.4,-29.6,1.0,,
08:35:13.845,13.9,MANUAL,0,0,0.0,0.0,0.0,0.5,0.5,CENTER_DUAL,300.9,-19.1,1.0,,
08:35:14.856,13.5,MANUAL,0,0,0.0,0.0,0.0,0.5,0.5,CENTER_DUAL,313.4,-6.6,1.0,,
08:35:15.876,14.1,MANUAL,0,0,0.0,0.0,0.0,0.5,0.5,CENTER_DUAL,313.8,-6.2,1.0,,
08:35:16.894,13.8,MANUAL,0,0,0.0,0.0,0.0,0.5,0.5,CENTER_DUAL,419.2,99.2,1.0,,
08:35:17.969,12.2,MANUAL,0,0,0.0,0.0,0.0,0.5,0.5,CENTER_DUAL,297.2,-22.8,1.0,,
08:35:19.000,13.3,MANUAL,0,0,0.0,0.0,0.0,0.5,0.5,CENTER_DUAL,295.1,-24.9,1.0,,
08:35:20.003,14.1,MANUAL,0,0,0.0,0.0,0.0,0.5,0.5,CENTER_DUAL,293.0,-27.0,1.0,,
08:35:21.024,14.0,MANUAL,0,0,0.0,0.0,0.0,0.5,0.5,CENTER_DUAL,296.5,-23.5,1.0,,
08:35:22.050,13.4,MANUAL,0,0,0.0,0.0,0.0,0.5,0.5,CENTER_DUAL,297.1,-22.9,1.0,,
08:35:23.062,14.1,MANUAL,0,0,0.0,0.0,0.0,0.5,0.5,CENTER_DUAL,297.1,-22.9,1.0,,
08:35:24.105,13.1,MANUAL,0,0,0.0,0.0,0.0,0.5,0.5,CENTER_DUAL,284.2,-35.8,1.0,,
08:35:25.131,14.0,MANUAL,0,0,0.0,0.0,0.0,0.5,0.5,CENTER_DUAL,287.0,-33.0,1.0,,
08:35:26.136,14.2,MANUAL,0,0,0.0,0.0,0.0,0.5,0.5,CENTER_DUAL,289.4,-30.6,1.0,,
08:35:27.137,13.8,MANUAL,0,0,0.0,0.0,0.0,0.5,0.5,CENTER_DUAL,290.6,-29.4,1.0,,
08:35:28.143,13.8,MANUAL,0,0,0.0,0.0,0.0,0.5,0.5,CENTER_DUAL,293.1,-26.9,1.0,,
08:35:29.145,14.1,MANUAL,0,0,0.0,0.0,0.0,0.5,0.5,CENTER_DUAL,290.1,-29.9,1.0,,
08:35:30.152,14.0,MANUAL,0,0,0.0,0.0,0.0,0.5,0.5,RIGHT_LANE_ONLY,288.6,-31.4,0.5,,
08:35:31.167,13.7,MANUAL,0,0,0.0,0.0,0.0,0.5,0.5,RIGHT_LANE_ONLY,306.7,-13.3,0.5,,
08:35:32.194,12.7,MANUAL,0,0,0.0,0.0,0.0,0.5,0.5,RIGHT_LANE_ONLY,306.4,-13.6,0.5,,
08:35:33.219,13.3,MANUAL,0,0,0.0,0.0,0.0,0.5,0.5,CENTER_DUAL,299.5,-20.5,1.0,,
08:35:34.239,13.6,MANUAL,0,0,0.0,0.0,0.0,0.5,0.5,CENTER_DUAL,322.7,2.7,1.0,,
08:35:35.274,13.6,MANUAL,0,0,0.0,0.0,0.0,0.5,0.5,RIGHT_LANE_ONLY,305.7,-14.3,0.5,,
08:35:36.292,14.2,MANUAL,0,0,0.0,0.0,0.0,0.5,0.5,CENTER_DUAL,309.5,-10.5,1.0,,
08:35:37.319,13.9,MANUAL,0,0,0.0,0.0,0.0,0.5,0.5,CENTER_DUAL,255.0,-65.0,1.0,,
08:35:38.354,13.0,MANUAL,0,0,0.0,0.0,0.0,0.5,0.5,CENTER_DUAL,256.5,-63.5,1.0,,
08:35:39.422,13.3,MANUAL,0,0,0.0,0.0,0.0,0.5,0.5,CENTER_DUAL,274.5,-45.5,1.0,,
08:35:40.448,13.6,MANUAL,0,0,0.0,0.0,0.0,0.5,0.5,RIGHT_LANE_ONLY,308.1,-11.9,0.5,,
08:35:41.453,14.7,MANUAL,0,0,0.0,0.0,0.0,0.5,0.5,CENTER_DUAL,299.8,-20.2,1.0,,
08:35:42.498,13.6,MANUAL,0,0,0.0,0.0,0.0,0.5,0.5,CENTER_DUAL,259.2,-60.8,1.0,,
08:35:43.510,13.7,MANUAL,0,0,0.0,0.0,0.0,0.5,0.5,CENTER_DUAL,257.8,-62.2,1.0,,
08:35:44.548,12.7,MANUAL,0,0,0.0,0.0,0.0,0.5,0.5,CENTER_DUAL,290.8,-29.2,1.0,,
08:35:45.556,14.6,MANUAL,0,0,0.0,0.0,0.0,0.5,0.5,CENTER_DUAL,288.2,-31.8,1.0,,
08:35:46.560,14.4,MANUAL,0,0,0.0,0.0,0.0,0.5,0.5,CENTER_DUAL,287.1,-32.9,1.0,,
08:35:47.560,14.0,MANUAL,0,0,0.0,0.0,0.0,0.5,0.5,CENTER_DUAL,286.5,-33.5,1.0,,
08:35:48.584,13.4,MANUAL,0,0,0.0,0.0,0.0,0.5,0.5,RIGHT_LANE_ONLY,321.7,1.7,0.5,,
08:35:49.614,13.7,MANUAL,0,0,0.0,0.0,0.0,0.5,0.5,RIGHT_LANE_ONLY,382.8,62.8,0.5,,
08:35:50.620,14.2,MANUAL,0,0,0.0,0.0,0.0,0.5,0.5,RIGHT_LANE_ONLY,321.5,1.5,0.5,,
08:35:51.644,13.8,MANUAL,0,0,0.0,0.0,0.0,0.5,0.5,RIGHT_LANE_ONLY,315.7,-4.3,0.5,,
08:35:52.699,13.1,MANUAL,0,0,0.0,0.0,0.0,0.5,0.5,RIGHT_LANE_ONLY,314.7,-5.3,0.5,,
08:35:53.743,12.6,MANUAL,0,0,0.0,0.0,0.0,0.5,0.5,RIGHT_LANE_ONLY,314.1,-5.9,0.5,,
08:35:54.784,13.1,MANUAL,0,0,0.0,0.0,0.0,0.5,0.5,RIGHT_LANE_ONLY,313.9,-6.1,0.5,,
08:35:55.833,13.6,MANUAL,0,0,0.0,0.0,0.0,0.5,0.5,RIGHT_LANE_ONLY,313.7,-6.3,0.5,,
08:35:56.873,13.4,MANUAL,0,0,0.0,0.0,0.0,0.5,0.5,RIGHT_LANE_ONLY,313.6,-6.4,0.5,,
08:35:57.917,14.0,MANUAL,0,0,0.0,0.0,0.0,0.5,0.5,RIGHT_LANE_ONLY,341.5,21.5,0.5,,
08:35:58.954,13.6,MANUAL,0,0,0.0,0.0,0.0,0.5,0.5,RIGHT_LANE_ONLY,354.6,34.6,0.5,,
08:35:59.962,14.2,MANUAL,0,0,0.0,0.0,0.0,0.5,0.5,CENTER_DUAL,359.5,39.5,1.0,,
08:36:00.996,13.6,MANUAL,0,0,0.0,0.0,0.0,0.5,0.5,CENTER_DUAL,360.4,40.4,1.0,,
08:36:02.007,13.7,MANUAL,0,0,0.0,0.0,0.0,0.5,0.5,RIGHT_LANE_ONLY,356.0,36.0,0.5,,
08:36:03.066,14.0,MANUAL,0,0,0.0,0.0,0.0,0.5,0.5,CENTER_DUAL,353.8,33.8,1.0,,
08:36:04.137,13.3,MANUAL,0,0,0.0,0.0,0.0,0.5,0.5,RIGHT_LANE_ONLY,353.1,33.1,0.5,,
08:36:05.159,14.1,MANUAL,0,0,0.0,0.0,0.0,0.5,0.5,CENTER_DUAL,366.9,46.9,1.0,,
08:36:06.225,14.2,MANUAL,0,0,0.0,0.0,0.0,0.5,0.5,CENTER_DUAL,286.0,-34.0,1.0,,
08:36:07.289,14.3,MANUAL,0,0,0.0,0.0,0.0,0.5,0.5,CENTER_DUAL,302.7,-17.3,1.0,,
08:36:08.354,14.4,MANUAL,0,0,0.0,0.0,0.0,0.5,0.5,CENTER_DUAL,283.8,-36.2,1.0,,
08:36:09.361,14.1,MANUAL,0,0,0.0,0.0,0.0,0.5,0.5,CENTER_DUAL,245.5,-74.5,1.0,,
08:36:10.368,13.8,MANUAL,0,0,0.0,0.0,0.0,0.5,0.5,RIGHT_LANE_ONLY,361.7,41.7,0.5,,
08:36:11.377,14.1,MANUAL,0,0,0.0,0.0,0.0,0.5,0.5,CENTER_DUAL,297.3,-22.7,1.0,,
08:36:12.434,14.4,MANUAL,0,0,0.0,0.0,0.0,0.5,0.5,CENTER_DUAL,293.7,-26.3,1.0,,
08:36:13.490,14.3,MANUAL,0,0,0.0,0.0,0.0,0.5,0.5,CENTER_DUAL,294.2,-25.8,1.0,,
08:36:14.554,14.4,MANUAL,0,0,0.0,0.0,0.0,0.5,0.5,CENTER_DUAL,289.2,-30.8,1.0,,
08:36:15.615,14.3,MANUAL,0,0,0.0,0.0,0.0,0.5,0.5,CENTER_DUAL,335.1,15.1,1.0,,
08:36:16.624,13.1,MANUAL,0,0,0.0,0.0,0.0,0.5,0.5,CENTER_DUAL,263.0,-57.0,1.0,,
08:36:17.682,13.7,MANUAL,0,0,0.0,0.0,0.0,0.5,0.5,CENTER_DUAL,259.3,-60.7,1.0,,
08:36:18.696,12.0,MANUAL,0,0,0.0,0.0,0.0,0.5,0.5,CENTER_DUAL,261.7,-58.3,1.0,,
08:36:19.708,14.0,MANUAL,0,0,0.0,0.0,0.0,0.5,0.5,CENTER_DUAL,273.7,-46.3,1.0,,
08:36:20.779,13.8,MANUAL,0,0,0.0,0.0,0.0,0.5,0.5,CENTER_DUAL,305.3,-14.7,1.0,,
08:36:21.781,13.0,MANUAL,0,0,0.0,0.0,0.0,0.5,0.5,CENTER_DUAL,258.5,-61.5,1.0,,
08:36:22.838,14.6,MANUAL,0,0,0.0,0.0,0.0,0.5,0.5,CENTER_DUAL,337.4,17.4,1.0,,
08:36:23.843,13.5,MANUAL,0,0,0.0,0.0,0.0,0.5,0.5,CENTER_DUAL,257.3,-62.7,1.0,,
08:36:24.853,14.1,MANUAL,0,0,0.0,0.0,0.0,0.5,0.5,RIGHT_LANE_ONLY,315.3,-4.7,0.5,,
08:36:25.910,14.5,MANUAL,0,0,0.0,0.0,0.0,0.5,0.5,CENTER_DUAL,319.0,-1.0,1.0,,
08:36:26.967,14.3,MANUAL,0,0,0.0,0.0,0.0,0.5,0.5,RIGHT_LANE_ONLY,314.7,-5.3,0.5,,
08:36:28.016,14.2,MANUAL,0,0,0.0,0.0,0.0,0.5,0.5,RIGHT_LANE_ONLY,309.0,-11.0,0.5,,
08:36:29.034,14.1,MANUAL,0,0,0.0,0.0,0.0,0.5,0.5,RIGHT_LANE_ONLY,367.2,47.2,0.5,,
08:36:30.046,14.2,MANUAL,0,0,0.0,0.0,0.0,0.5,0.5,CENTER_DUAL,333.2,13.2,1.0,,
08:36:31.096,13.9,MANUAL,0,0,0.0,0.0,0.0,0.5,0.5,RIGHT_LANE_ONLY,296.6,-23.4,0.5,,
08:36:32.147,14.8,MANUAL,0,0,0.0,0.0,0.0,0.5,0.5,CENTER_DUAL,294.4,-25.6,1.0,,
08:36:33.148,13.6,MANUAL,0,0,0.0,0.0,0.0,0.5,0.5,CENTER_DUAL,428.0,108.0,1.0,,
08:36:34.151,13.9,MANUAL,0,0,0.0,0.0,0.0,0.5,0.5,CENTER_DUAL,291.2,-28.8,1.0,,
08:36:35.189,14.3,MANUAL,0,0,0.0,0.0,0.0,0.5,0.5,CENTER_DUAL,298.8,-21.2,1.0,,
08:36:36.257,13.7,MANUAL,0,0,0.0,0.0,0.0,0.5,0.5,CENTER_DUAL,386.1,66.1,1.0,,
08:36:37.284,13.9,MANUAL,0,0,0.0,0.0,0.0,0.5,0.5,CENTER_DUAL,297.1,-22.9,1.0,,
08:36:38.305,13.2,MANUAL,0,0,0.0,0.0,0.0,0.5,0.5,RIGHT_LANE_ONLY,418.8,98.8,0.5,,
08:36:39.380,13.6,MANUAL,0,0,0.0,0.0,0.0,0.5,0.5,CENTER_DUAL,317.6,-2.4,1.0,,
08:36:40.403,13.7,MANUAL,0,0,0.0,0.0,0.0,0.5,0.5,CENTER_DUAL,386.0,66.0,1.0,,
08:36:41.427,14.0,MANUAL,0,0,0.0,0.0,0.0,0.5,0.5,CENTER_DUAL,394.7,74.7,1.0,,
08:36:42.445,14.3,MANUAL,0,0,0.0,0.0,0.0,0.5,0.5,CENTER_DUAL,310.1,-9.9,1.0,,
08:36:43.451,14.3,MANUAL,0,0,0.0,0.0,0.0,0.5,0.5,CENTER_DUAL,300.3,-19.7,1.0,,
08:36:44.522,13.7,MANUAL,0,0,0.0,0.0,0.0,0.5,0.5,CENTER_DUAL,316.3,-3.7,1.0,,
08:36:45.536,13.9,MANUAL,0,0,0.0,0.0,0.0,0.5,0.5,CENTER_DUAL,321.0,1.0,1.0,,
08:36:46.544,14.1,MANUAL,0,0,0.0,0.0,0.0,0.5,0.5,CENTER_DUAL,316.0,-4.0,1.0,,
08:36:47.606,14.2,MANUAL,0,0,0.0,0.0,0.0,0.5,0.5,CENTER_DUAL,316.3,-3.7,1.0,,
08:36:48.607,13.7,MANUAL,0,0,0.0,0.0,0.0,0.5,0.5,CENTER_DUAL,317.7,-2.3,1.0,,
08:36:49.628,13.6,MANUAL,0,0,0.0,0.0,0.0,0.5,0.5,CENTER_DUAL,316.2,-3.8,1.0,,
08:36:50.640,14.1,MANUAL,0,0,0.0,0.0,0.0,0.5,0.5,CENTER_DUAL,314.3,-5.7,1.0,,
08:36:51.646,14.2,MANUAL,0,0,0.0,0.0,0.0,0.5,0.5,CENTER_DUAL,322.5,2.5,1.0,,
08:36:52.709,14.3,MANUAL,0,0,0.0,0.0,0.0,0.5,0.5,CENTER_DUAL,320.2,0.2,1.0,,
08:36:53.733,13.4,MANUAL,0,0,0.0,0.0,0.0,0.5,0.5,CENTER_DUAL,315.2,-4.8,1.0,,
08:36:54.736,14.2,MANUAL,0,0,0.0,0.0,0.0,0.5,0.5,CENTER_DUAL,315.5,-4.5,1.0,,
08:36:55.744,14.3,MANUAL,0,0,0.0,0.0,0.0,0.5,0.5,CENTER_DUAL,314.8,-5.2,1.0,,
08:36:56.744,13.9,MANUAL,0,0,0.0,0.0,0.0,0.5,0.5,CENTER_DUAL,313.8,-6.2,1.0,,
08:36:57.805,14.3,MANUAL,0,0,0.0,0.0,0.0,0.5,0.5,CENTER_DUAL,313.3,-6.7,1.0,,
08:36:58.873,14.6,MANUAL,0,0,0.0,0.0,0.0,0.5,0.5,CENTER_DUAL,277.2,-42.8,1.0,,
08:36:59.883,13.5,MANUAL,0,0,0.0,0.0,0.0,0.5,0.5,RIGHT_LANE_ONLY,372.0,52.0,0.5,,
08:37:00.885,13.5,MANUAL,0,0,0.0,0.0,0.0,0.5,0.5,RIGHT_LANE_ONLY,370.7,50.7,0.5,,
08:37:01.901,14.1,MANUAL,0,0,0.0,0.0,0.0,0.5,0.5,RIGHT_LANE_ONLY,363.9,43.9,0.5,,
08:37:02.959,14.3,MANUAL,0,0,0.0,0.0,0.0,0.5,0.5,CENTER_DUAL,291.2,-28.8,1.0,,
08:37:04.022,14.7,MANUAL,0,0,0.0,0.0,0.0,0.5,0.5,RIGHT_LANE_ONLY,319.6,-0.4,0.5,,
08:37:05.070,14.1,MANUAL,0,0,0.0,0.0,0.0,0.5,0.5,CENTER_DUAL,346.2,26.2,1.0,,
08:37:06.133,14.1,MANUAL,0,0,0.0,0.0,0.0,0.5,0.5,CENTER_DUAL,364.0,44.0,1.0,,
08:37:07.205,14.0,MANUAL,0,0,0.0,0.0,0.0,0.5,0.5,CENTER_DUAL,372.0,52.0,1.0,,
08:37:08.211,14.2,MANUAL,0,0,0.0,0.0,0.0,0.5,0.5,CENTER_DUAL,373.5,53.5,1.0,,
08:37:09.218,14.4,MANUAL,0,0,0.0,0.0,0.0,0.5,0.5,CENTER_DUAL,371.1,51.1,1.0,,
08:37:10.219,14.2,MANUAL,0,0,0.0,0.0,0.0,0.5,0.5,CENTER_DUAL,371.0,51.0,1.0,,
08:37:11.289,14.1,MANUAL,0,0,0.0,0.0,0.0,0.5,0.5,RIGHT_LANE_ONLY,368.9,48.9,0.5,,
08:37:12.345,14.0,MANUAL,0,0,0.0,0.0,0.0,0.5,0.5,CENTER_DUAL,374.2,54.2,1.0,,
08:37:13.390,5.7,MANUAL,0,0,0.0,0.0,0.0,0.5,0.5,RIGHT_LANE_ONLY,369.4,49.4,0.5,,
08:37:14.447,14.2,MANUAL,0,0,0.0,0.0,0.0,0.5,0.5,RIGHT_LANE_ONLY,370.3,50.3,0.5,,
08:37:15.469,13.5,MANUAL,0,0,0.0,0.0,0.0,0.5,0.5,CENTER_DUAL,365.5,45.5,1.0,,
08:37:16.535,13.9,MANUAL,0,0,0.0,0.0,0.0,0.5,0.5,CENTER_DUAL,347.1,27.1,1.0,,
08:37:17.536,13.9,MANUAL,0,0,0.0,0.0,0.0,0.5,0.5,CENTER_DUAL,304.1,-15.9,1.0,,
08:37:18.593,13.8,MANUAL,0,0,0.0,0.0,0.0,0.5,0.5,CENTER_DUAL,295.7,-24.3,1.0,,
08:37:19.603,12.8,MANUAL,0,0,0.0,0.0,0.0,0.5,0.5,CENTER_DUAL,287.6,-32.4,1.0,,
08:37:20.660,14.1,MANUAL,0,0,0.0,0.0,0.0,0.5,0.5,CENTER_DUAL,319.0,-1.0,1.0,,
08:37:21.726,14.4,MANUAL,0,0,0.0,0.0,0.0,0.5,0.5,CENTER_DUAL,300.3,-19.7,1.0,,
08:37:22.765,14.5,MANUAL,0,0,0.0,0.0,0.0,0.5,0.5,CENTER_DUAL,300.1,-19.9,1.0,,
08:37:23.832,13.2,MANUAL,0,0,0.0,0.0,0.0,0.5,0.5,RIGHT_LANE_ONLY,317.8,-2.2,0.5,,
08:37:24.884,14.7,MANUAL,0,0,0.0,0.0,0.0,0.5,0.5,CENTER_DUAL,294.3,-25.7,1.0,,
08:37:25.887,14.2,MANUAL,0,0,0.0,0.0,0.0,0.5,0.5,CENTER_DUAL,294.3,-25.7,1.0,,
08:37:26.894,14.8,MANUAL,0,0,0.0,0.0,0.0,0.5,0.5,CENTER_DUAL,299.6,-20.4,1.0,,
08:37:27.896,14.1,MANUAL,0,0,0.0,0.0,0.0,0.5,0.5,CENTER_DUAL,300.8,-19.2,1.0,,
08:37:28.958,14.5,MANUAL,0,0,0.0,0.0,0.0,0.5,0.5,CENTER_DUAL,302.3,-17.7,1.0,,
08:37:30.018,14.5,MANUAL,0,0,0.0,0.0,0.0,0.5,0.5,CENTER_DUAL,306.9,-13.1,1.0,,
08:37:31.044,14.7,MANUAL,0,0,0.0,0.0,0.0,0.5,0.5,RIGHT_LANE_ONLY,311.2,-8.8,0.5,,
08:37:32.064,13.6,MANUAL,0,0,0.0,0.0,0.0,0.5,0.5,RIGHT_LANE_ONLY,314.1,-5.9,0.5,,
08:37:33.100,13.5,MANUAL,0,0,0.0,0.0,0.0,0.5,0.5,RIGHT_LANE_ONLY,312.4,-7.6,0.5,,
08:37:34.111,14.0,MANUAL,0,0,0.0,0.0,0.0,0.5,0.5,RIGHT_LANE_ONLY,311.5,-8.5,0.5,,
08:37:35.119,13.4,MANUAL,0,0,0.0,0.0,0.0,0.5,0.5,RIGHT_LANE_ONLY,322.2,2.2,0.5,,
08:37:36.121,13.7,MANUAL,0,0,0.0,0.0,0.0,0.5,0.5,CENTER_DUAL,326.2,6.2,1.0,,
08:37:37.134,13.3,MANUAL,0,0,0.0,0.0,0.0,0.5,0.5,CENTER_DUAL,322.4,2.4,1.0,,
08:37:38.201,13.2,MANUAL,0,0,0.0,0.0,0.0,0.5,0.5,CENTER_DUAL,324.8,4.8,1.0,,
08:37:39.267,13.9,MANUAL,0,0,0.0,0.0,0.0,0.5,0.5,CENTER_DUAL,322.6,2.6,1.0,,
08:37:40.268,13.5,MANUAL,0,0,0.0,0.0,0.0,0.5,0.5,CENTER_DUAL,335.3,15.3,1.0,,
08:37:41.270,13.7,MANUAL,0,0,0.0,0.0,0.0,0.5,0.5,RIGHT_LANE_ONLY,323.1,3.1,0.5,,
08:37:42.271,14.2,MANUAL,0,0,0.0,0.0,0.0,0.5,0.5,CENTER_DUAL,325.0,5.0,1.0,,
08:37:43.337,13.1,MANUAL,0,0,0.0,0.0,0.0,0.5,0.5,CENTER_DUAL,316.9,-3.1,1.0,,
08:37:44.395,14.5,MANUAL,0,0,0.0,0.0,0.0,0.5,0.5,CENTER_DUAL,328.5,8.5,1.0,,
08:37:45.399,13.4,MANUAL,0,0,0.0,0.0,0.0,0.5,0.5,CENTER_DUAL,327.9,7.9,1.0,,
08:37:46.408,13.8,MANUAL,0,0,0.0,0.0,0.0,0.5,0.5,CENTER_DUAL,322.4,2.4,1.0,,
08:37:47.408,13.7,MANUAL,0,0,0.0,0.0,0.0,0.5,0.5,CENTER_DUAL,327.4,7.4,1.0,,
08:37:48.408,13.5,MANUAL,0,0,0.0,0.0,0.0,0.5,0.5,CENTER_DUAL,291.4,-28.6,1.0,,
08:37:49.476,14.6,MANUAL,0,0,0.0,0.0,0.0,0.5,0.5,CENTER_DUAL,280.8,-39.2,1.0,,
08:37:50.544,14.3,MANUAL,0,0,0.0,0.0,0.0,0.5,0.5,CENTER_DUAL,277.2,-42.8,1.0,,
08:37:51.595,14.2,MANUAL,0,0,0.0,0.0,0.0,0.5,0.5,CENTER_DUAL,273.9,-46.1,1.0,,
08:37:52.659,14.5,MANUAL,0,0,0.0,0.0,0.0,0.5,0.5,CENTER_DUAL,272.9,-47.1,1.0,,
08:37:53.723,14.7,MANUAL,0,0,0.0,0.0,0.0,0.5,0.5,CENTER_DUAL,275.4,-44.6,1.0,,
08:37:54.791,14.1,MANUAL,0,0,0.0,0.0,0.0,0.5,0.5,CENTER_DUAL,275.1,-44.9,1.0,,
08:37:55.863,13.5,MANUAL,0,0,0.0,0.0,0.0,0.5,0.5,CENTER_DUAL,301.4,-18.6,1.0,,
08:37:56.863,13.8,MANUAL,0,0,0.0,0.0,0.0,0.5,0.5,CENTER_DUAL,280.7,-39.3,1.0,,
08:37:57.873,13.6,MANUAL,0,0,0.0,0.0,0.0,0.5,0.5,CENTER_DUAL,255.8,-64.2,1.0,,
08:37:58.907,13.1,MANUAL,0,0,0.0,0.0,0.0,0.5,0.5,CENTER_DUAL,255.0,-65.0,1.0,,
08:37:59.933,13.6,MANUAL,0,0,0.0,0.0,0.0,0.5,0.5,CENTER_DUAL,255.8,-64.2,1.0,,
08:38:00.963,13.3,MANUAL,0,0,0.0,0.0,0.0,0.5,0.5,CENTER_DUAL,271.1,-48.9,1.0,,
08:38:01.983,12.8,MANUAL,0,0,0.0,0.0,0.0,0.5,0.5,CENTER_DUAL,249.5,-70.5,1.0,,
08:38:02.990,14.1,MANUAL,0,0,0.0,0.0,0.0,0.5,0.5,CENTER_DUAL,251.7,-68.3,1.0,,
08:38:04.007,13.9,MANUAL,0,0,0.0,0.0,0.0,0.5,0.5,CENTER_DUAL,262.4,-57.6,1.0,,
08:38:05.019,13.6,MANUAL,0,0,0.0,0.0,0.0,0.5,0.5,CENTER_DUAL,251.3,-68.7,1.0,,
08:38:06.049,13.5,MANUAL,0,0,0.0,0.0,0.0,0.5,0.5,CENTER_DUAL,252.0,-68.0,1.0,,
08:38:07.118,14.4,MANUAL,0,0,0.0,0.0,0.0,0.5,0.5,CENTER_DUAL,254.0,-66.0,1.0,,
08:38:08.180,14.5,MANUAL,0,0,0.0,0.0,0.0,0.5,0.5,CENTER_DUAL,255.8,-64.2,1.0,,
08:38:09.244,14.2,MANUAL,0,0,0.0,0.0,0.0,0.5,0.5,CENTER_DUAL,257.0,-63.0,1.0,,
08:38:10.272,14.2,MANUAL,0,0,0.0,0.0,0.0,0.5,0.5,CENTER_DUAL,253.2,-66.8,1.0,,
08:38:11.283,13.2,MANUAL,0,0,0.0,0.0,0.0,0.5,0.5,CENTER_DUAL,254.3,-65.7,1.0,,
08:38:12.288,13.8,MANUAL,0,0,0.0,0.0,0.0,0.5,0.5,CENTER_DUAL,255.3,-64.7,1.0,,
08:38:13.356,14.1,MANUAL,0,0,0.0,0.0,0.0,0.5,0.5,CENTER_DUAL,256.4,-63.6,1.0,,
08:38:14.364,13.8,MANUAL,0,0,0.0,0.0,0.0,0.5,0.5,CENTER_DUAL,257.0,-63.0,1.0,,
08:38:15.371,13.8,MANUAL,0,0,0.0,0.0,0.0,0.5,0.5,CENTER_DUAL,273.9,-46.1,1.0,,
08:38:16.437,14.0,MANUAL,0,0,0.0,0.0,0.0,0.5,0.5,CENTER_DUAL,244.3,-75.7,1.0,,
08:38:17.504,13.9,MANUAL,0,0,0.0,0.0,0.0,0.5,0.5,CENTER_DUAL,254.7,-65.3,1.0,,
08:38:18.561,14.5,MANUAL,0,0,0.0,0.0,0.0,0.5,0.5,CENTER_DUAL,243.8,-76.2,1.0,,
08:38:19.614,13.8,MANUAL,0,0,0.0,0.0,0.0,0.5,0.5,CENTER_DUAL,258.0,-62.0,1.0,,
08:38:20.669,14.8,MANUAL,0,0,0.0,0.0,0.0,0.5,0.5,CENTER_DUAL,253.8,-66.2,1.0,,
08:38:21.739,14.1,MANUAL,0,0,0.0,0.0,0.0,0.5,0.5,CENTER_DUAL,239.7,-80.3,1.0,,
08:38:22.740,14.2,MANUAL,0,0,0.0,0.0,0.0,0.5,0.5,CENTER_DUAL,372.4,52.4,1.0,,
08:38:23.741,14.6,MANUAL,0,0,0.0,0.0,0.0,0.5,0.5,CENTER_DUAL,274.7,-45.3,1.0,,
08:38:24.812,14.1,MANUAL,0,0,0.0,0.0,0.0,0.5,0.5,CENTER_DUAL,264.8,-55.2,1.0,,
08:38:25.814,14.0,MANUAL,0,0,0.0,0.0,0.0,0.5,0.5,CENTER_DUAL,262.7,-57.3,1.0,,
08:38:26.828,14.4,MANUAL,0,0,0.0,0.0,0.0,0.5,0.5,CENTER_DUAL,273.1,-46.9,1.0,,
08:38:27.833,14.0,MANUAL,0,0,0.0,0.0,0.0,0.5,0.5,CENTER_DUAL,280.4,-39.6,1.0,,
08:38:28.842,14.2,MANUAL,0,0,0.0,0.0,0.0,0.5,0.5,CENTER_DUAL,257.2,-62.8,1.0,,
08:38:29.873,13.8,MANUAL,0,0,0.0,0.0,0.0,0.5,0.5,CENTER_DUAL,273.6,-46.4,1.0,,
08:38:30.889,13.8,MANUAL,0,0,0.0,0.0,0.0,0.5,0.5,CENTER_DUAL,263.8,-56.2,1.0,,
08:38:31.912,14.2,MANUAL,0,0,0.0,0.0,0.0,0.5,0.5,CENTER_DUAL,265.3,-54.7,1.0,,
08:38:32.918,13.9,MANUAL,0,0,0.0,0.0,0.0,0.5,0.5,CENTER_DUAL,279.9,-40.1,1.0,,
08:38:33.923,14.0,MANUAL,0,0,0.0,0.0,0.0,0.5,0.5,CENTER_DUAL,264.7,-55.3,1.0,,
08:38:34.934,14.3,MANUAL,0,0,0.0,0.0,0.0,0.5,0.5,CENTER_DUAL,272.0,-48.0,1.0,,
08:38:36.006,14.0,MANUAL,0,0,0.0,0.0,0.0,0.5,0.5,CENTER_DUAL,268.4,-51.6,1.0,,
08:38:37.029,13.8,MANUAL,0,0,0.0,0.0,0.0,0.5,0.5,CENTER_DUAL,264.8,-55.2,1.0,,
08:38:38.044,14.0,MANUAL,0,0,0.0,0.0,0.0,0.5,0.5,CENTER_DUAL,267.4,-52.6,1.0,,
08:38:39.076,13.2,MANUAL,0,0,0.0,0.0,0.0,0.5,0.5,RIGHT_LANE_ONLY,271.0,-49.0,0.5,,
08:38:40.083,13.4,MANUAL,0,0,0.0,0.0,0.0,0.5,0.5,CENTER_DUAL,262.1,-57.9,1.0,,
08:38:41.113,14.1,MANUAL,0,0,0.0,0.0,0.0,0.5,0.5,CENTER_DUAL,272.3,-47.7,1.0,,
08:38:42.139,13.9,MANUAL,0,0,0.0,0.0,0.0,0.5,0.5,RIGHT_LANE_ONLY,270.4,-49.6,0.5,,
08:38:43.149,13.7,MANUAL,0,0,0.0,0.0,0.0,0.5,0.5,CENTER_DUAL,261.9,-58.1,1.0,,
08:38:44.164,13.4,MANUAL,0,0,0.0,0.0,0.0,0.5,0.5,CENTER_DUAL,266.0,-54.0,1.0,,
08:38:45.230,14.0,MANUAL,0,0,0.0,0.0,0.0,0.5,0.5,CENTER_DUAL,244.2,-75.8,1.0,,
08:38:46.235,13.6,MANUAL,0,0,0.0,0.0,0.0,0.5,0.5,CENTER_DUAL,262.8,-57.2,1.0,,
08:38:47.236,14.1,MANUAL,0,0,0.0,0.0,0.0,0.5,0.5,CENTER_DUAL,246.1,-73.9,1.0,,
08:38:48.303,14.1,MANUAL,0,0,0.0,0.0,0.0,0.5,0.5,CENTER_DUAL,266.9,-53.1,1.0,,
08:38:49.359,14.6,MANUAL,0,0,0.0,0.0,0.0,0.5,0.5,CENTER_DUAL,263.3,-56.7,1.0,,
08:38:50.411,14.2,MANUAL,0,0,0.0,0.0,0.0,0.5,0.5,CENTER_DUAL,260.8,-59.2,1.0,,
08:38:51.475,14.7,MANUAL,0,0,0.0,0.0,0.0,0.5,0.5,CENTER_DUAL,255.0,-65.0,1.0,,
08:38:52.536,14.5,MANUAL,0,0,0.0,0.0,0.0,0.5,0.5,CENTER_DUAL,259.7,-60.3,1.0,,
08:38:53.593,14.0,MANUAL,0,0,0.0,0.0,0.0,0.5,0.5,CENTER_DUAL,261.1,-58.9,1.0,,
08:38:54.594,14.1,MANUAL,0,0,0.0,0.0,0.0,0.5,0.5,CENTER_DUAL,257.3,-62.7,1.0,,
08:38:55.647,14.7,MANUAL,0,0,0.0,0.0,0.0,0.5,0.5,CENTER_DUAL,256.0,-64.0,1.0,,
08:38:56.705,14.1,MANUAL,0,0,0.0,0.0,0.0,0.5,0.5,CENTER_DUAL,255.4,-64.6,1.0,,
08:38:57.754,14.2,MANUAL,0,0,0.0,0.0,0.0,0.5,0.5,CENTER_DUAL,255.0,-65.0,1.0,,
08:38:58.816,14.4,MANUAL,0,0,0.0,0.0,0.0,0.5,0.5,CENTER_DUAL,254.8,-65.2,1.0,,
08:38:59.863,14.6,MANUAL,0,0,0.0,0.0,0.0,0.5,0.5,CENTER_DUAL,255.7,-64.3,1.0,,
08:39:00.912,13.9,MANUAL,0,0,0.0,0.0,0.0,0.5,0.5,CENTER_DUAL,253.3,-66.7,1.0,,
08:39:01.977,14.1,MANUAL,0,0,0.0,0.0,0.0,0.5,0.5,CENTER_DUAL,252.2,-67.8,1.0,,
08:39:02.987,13.9,MANUAL,0,0,0.0,0.0,0.0,0.5,0.5,CENTER_DUAL,249.9,-70.1,1.0,,
08:39:03.995,13.8,MANUAL,0,0,0.0,0.0,0.0,0.5,0.5,CENTER_DUAL,247.9,-72.1,1.0,,
08:39:04.998,14.0,MANUAL,0,0,0.0,0.0,0.0,0.5,0.5,CENTER_DUAL,247.3,-72.7,1.0,,
08:39:06.069,14.4,MANUAL,0,0,0.0,0.0,0.0,0.5,0.5,CENTER_DUAL,247.8,-72.2,1.0,,
08:39:07.071,13.4,MANUAL,0,0,0.0,0.0,0.0,0.5,0.5,CENTER_DUAL,246.7,-73.3,1.0,,
08:39:08.136,13.8,MANUAL,0,0,0.0,0.0,0.0,0.5,0.5,CENTER_DUAL,246.6,-73.4,1.0,,
08:39:09.200,13.9,MANUAL,0,0,0.0,0.0,0.0,0.5,0.5,CENTER_DUAL,246.8,-73.2,1.0,,
08:39:10.259,14.4,MANUAL,0,0,0.0,0.0,0.0,0.5,0.5,CENTER_DUAL,246.8,-73.2,1.0,,
08:39:11.261,14.6,MANUAL,0,0,0.0,0.0,0.0,0.5,0.5,CENTER_DUAL,246.9,-73.1,1.0,,
08:39:12.264,13.7,MANUAL,0,0,0.0,0.0,0.0,0.5,0.5,CENTER_DUAL,239.8,-80.2,1.0,,
08:39:13.289,13.7,MANUAL,0,0,0.0,0.0,0.0,0.5,0.5,CENTER_DUAL,248.8,-71.2,1.0,,
08:39:14.359,14.1,MANUAL,0,0,0.0,0.0,0.0,0.5,0.5,CENTER_DUAL,257.5,-62.5,1.0,,
08:39:15.361,14.1,MANUAL,0,0,0.0,0.0,0.0,0.5,0.5,CENTER_DUAL,253.7,-66.3,1.0,,
08:39:16.375,14.1,MANUAL,0,0,0.0,0.0,0.0,0.5,0.5,CENTER_DUAL,259.1,-60.9,1.0,,
08:39:17.381,13.9,MANUAL,0,0,0.0,0.0,0.0,0.5,0.5,CENTER_DUAL,357.9,37.9,1.0,,
08:39:18.406,13.7,MANUAL,0,0,0.0,0.0,0.0,0.5,0.5,RIGHT_LANE_ONLY,337.2,17.2,0.5,,
08:39:19.438,13.1,MANUAL,0,0,0.0,0.0,0.0,0.5,0.5,RIGHT_LANE_ONLY,338.6,18.6,0.5,,
08:39:20.449,14.7,MANUAL,0,0,0.0,0.0,0.0,0.5,0.5,CENTER_DUAL,262.5,-57.5,1.0,,
08:39:21.524,14.0,MANUAL,0,0,0.0,0.0,0.0,0.5,0.5,CENTER_DUAL,284.8,-35.2,1.0,,
08:39:22.545,14.0,MANUAL,0,0,0.0,0.0,0.0,0.5,0.5,CENTER_DUAL,287.7,-32.3,1.0,,
08:39:23.569,14.5,MANUAL,0,0,0.0,0.0,0.0,0.5,0.5,CENTER_DUAL,285.4,-34.6,1.0,,
08:39:24.575,14.1,MANUAL,0,0,0.0,0.0,0.0,0.5,0.5,CENTER_DUAL,280.1,-39.9,1.0,,
08:39:25.642,14.5,MANUAL,0,0,0.0,0.0,0.0,0.5,0.5,CENTER_DUAL,270.9,-49.1,1.0,,
08:39:26.652,13.7,MANUAL,0,0,0.0,0.0,0.0,0.5,0.5,CENTER_DUAL,271.0,-49.0,1.0,,
08:39:27.677,13.2,MANUAL,0,0,0.0,0.0,0.0,0.5,0.5,RIGHT_LANE_ONLY,281.6,-38.4,0.5,,
08:39:28.679,14.3,MANUAL,0,0,0.0,0.0,0.0,0.5,0.5,CENTER_DUAL,279.1,-40.9,1.0,,
08:39:29.728,13.2,MANUAL,0,0,0.0,0.0,0.0,0.5,0.5,CENTER_DUAL,273.5,-46.5,1.0,,
08:39:30.742,14.2,MANUAL,0,0,0.0,0.0,0.0,0.5,0.5,CENTER_DUAL,279.3,-40.7,1.0,,
08:39:31.753,14.3,MANUAL,0,0,0.0,0.0,0.0,0.5,0.5,CENTER_DUAL,279.4,-40.6,1.0,,
08:39:32.773,13.6,MANUAL,0,0,0.0,0.0,0.0,0.5,0.5,CENTER_DUAL,275.2,-44.8,1.0,,
08:39:33.798,13.3,MANUAL,0,0,0.0,0.0,0.0,0.5,0.5,RIGHT_LANE_ONLY,282.5,-37.5,0.5,,
08:39:34.870,14.1,MANUAL,0,0,0.0,0.0,0.0,0.5,0.5,CENTER_DUAL,283.2,-36.8,1.0,,
08:39:35.939,13.9,MANUAL,0,0,0.0,0.0,0.0,0.5,0.5,CENTER_DUAL,277.0,-43.0,1.0,,
08:39:36.963,13.2,MANUAL,0,0,0.0,0.0,0.0,0.5,0.5,CENTER_DUAL,268.4,-51.6,1.0,,
08:39:37.992,13.1,MANUAL,0,0,0.0,0.0,0.0,0.5,0.5,CENTER_DUAL,265.7,-54.3,1.0,,
08:39:39.042,13.3,MANUAL,0,0,0.0,0.0,0.0,0.5,0.5,CENTER_DUAL,264.4,-55.6,1.0,,
08:39:40.062,14.1,MANUAL,0,0,0.0,0.0,0.0,0.5,0.5,CENTER_DUAL,263.5,-56.5,1.0,,
08:39:41.100,13.4,MANUAL,0,0,0.0,0.0,0.0,0.5,0.5,CENTER_DUAL,262.8,-57.2,1.0,,
08:39:42.145,13.7,MANUAL,0,0,0.0,0.0,0.0,0.5,0.5,CENTER_DUAL,263.1,-56.9,1.0,,
08:39:43.170,12.9,MANUAL,0,0,0.0,0.0,0.0,0.5,0.5,CENTER_DUAL,263.3,-56.7,1.0,,
08:39:44.216,13.1,MANUAL,0,0,0.0,0.0,0.0,0.5,0.5,CENTER_DUAL,262.9,-57.1,1.0,,
08:39:45.251,13.4,MANUAL,0,0,0.0,0.0,0.0,0.5,0.5,CENTER_DUAL,262.7,-57.3,1.0,,
08:39:46.316,12.9,MANUAL,0,0,0.0,0.0,0.0,0.5,0.5,CENTER_DUAL,263.9,-56.1,1.0,,
08:39:47.349,13.3,MANUAL,0,0,0.0,0.0,0.0,0.5,0.5,CENTER_DUAL,274.1,-45.9,1.0,,
08:39:48.380,14.2,MANUAL,0,0,0.0,0.0,0.0,0.5,0.5,CENTER_DUAL,276.7,-43.3,1.0,,
08:39:49.431,12.9,MANUAL,0,0,0.0,0.0,0.0,0.5,0.5,CENTER_DUAL,278.2,-41.8,1.0,,
08:39:50.460,14.1,MANUAL,0,0,0.0,0.0,0.0,0.5,0.5,CENTER_DUAL,278.9,-41.1,1.0,,
08:39:51.506,13.0,MANUAL,0,0,0.0,0.0,0.0,0.5,0.5,CENTER_DUAL,278.7,-41.3,1.0,,
08:39:52.518,14.1,MANUAL,0,0,0.0,0.0,0.0,0.5,0.5,CENTER_DUAL,281.1,-38.9,1.0,,
08:39:53.562,13.2,MANUAL,0,0,0.0,0.0,0.0,0.5,0.5,CENTER_DUAL,315.0,-5.0,1.0,,
08:39:54.617,13.1,MANUAL,0,0,0.0,0.0,0.0,0.5,0.5,RIGHT_LANE_ONLY,309.0,-11.0,0.5,,
08:39:55.669,13.1,MANUAL,0,0,0.0,0.0,0.0,0.5,0.5,RIGHT_LANE_ONLY,307.5,-12.5,0.5,,
08:39:56.708,13.5,MANUAL,0,0,0.0,0.0,0.0,0.5,0.5,RIGHT_LANE_ONLY,306.9,-13.1,0.5,,
08:39:57.759,12.9,MANUAL,0,0,0.0,0.0,0.0,0.5,0.5,RIGHT_LANE_ONLY,306.8,-13.2,0.5,,
08:39:58.764,12.7,MANUAL,0,0,0.0,0.0,0.0,0.5,0.5,RIGHT_LANE_ONLY,307.0,-13.0,0.5,,
08:39:59.822,13.2,MANUAL,0,0,0.0,0.0,0.0,0.5,0.5,RIGHT_LANE_ONLY,307.0,-13.0,0.5,,
08:40:00.867,13.8,MANUAL,0,0,0.0,0.0,0.0,0.5,0.5,RIGHT_LANE_ONLY,306.7,-13.3,0.5,,
08:40:01.914,13.7,MANUAL,0,0,0.0,0.0,0.0,0.5,0.5,RIGHT_LANE_ONLY,307.2,-12.8,0.5,,
08:40:02.940,13.8,MANUAL,0,0,0.0,0.0,0.0,0.5,0.5,RIGHT_LANE_ONLY,295.4,-24.6,0.5,,
08:40:03.962,13.6,MANUAL,0,0,0.0,0.0,0.0,0.5,0.5,CENTER_DUAL,271.0,-49.0,1.0,,
08:40:05.000,13.6,MANUAL,0,0,0.0,0.0,0.0,0.5,0.5,RIGHT_LANE_ONLY,383.2,63.2,0.5,,
08:40:06.066,13.6,MANUAL,0,0,0.0,0.0,0.0,0.5,0.5,CENTER_DUAL,381.8,61.8,1.0,,
08:40:07.077,13.3,MANUAL,0,0,0.0,0.0,0.0,0.5,0.5,CENTER_DUAL,287.5,-32.5,1.0,,
08:40:08.143,13.3,MANUAL,0,0,0.0,0.0,0.0,0.5,0.5,CENTER_DUAL,307.5,-12.5,1.0,,
08:40:09.145,12.6,MANUAL,0,0,0.0,0.0,0.0,0.5,0.5,CENTER_DUAL,305.7,-14.3,1.0,,
08:40:10.219,13.2,MANUAL,0,0,0.0,0.0,0.0,0.5,0.5,RIGHT_LANE_ONLY,315.2,-4.8,0.5,,
08:40:11.282,13.5,MANUAL,0,0,0.0,0.0,0.0,0.5,0.5,RIGHT_LANE_ONLY,329.3,9.3,0.5,,
08:40:12.293,13.0,MANUAL,0,0,0.0,0.0,0.0,0.5,0.5,CENTER_DUAL,448.3,128.3,1.0,,
08:40:13.349,12.9,MANUAL,0,0,0.0,0.0,0.0,0.5,0.5,CENTER_DUAL,394.7,74.7,1.0,,
08:40:14.354,13.2,MANUAL,0,0,0.0,0.0,0.0,0.5,0.5,RIGHT_LANE_ONLY,324.1,4.1,0.5,,
08:40:15.432,12.4,MANUAL,0,0,0.0,0.0,0.0,0.5,0.5,RIGHT_LANE_ONLY,372.0,52.0,0.5,,
08:40:16.497,14.3,MANUAL,0,0,0.0,0.0,0.0,0.5,0.5,CENTER_DUAL,256.0,-64.0,1.0,,
08:40:17.548,12.9,MANUAL,0,0,0.0,0.0,0.0,0.5,0.5,CENTER_DUAL,346.7,26.7,1.0,,
08:40:18.619,13.1,MANUAL,0,0,0.0,0.0,0.0,0.5,0.5,CENTER_DUAL,291.5,-28.5,1.0,,
08:40:19.675,13.3,MANUAL,0,0,0.0,0.0,0.0,0.5,0.5,CENTER_DUAL,382.0,62.0,1.0,,
08:40:20.736,13.9,MANUAL,0,0,0.0,0.0,0.0,0.5,0.5,CENTER_DUAL,264.7,-55.3,1.0,,
08:40:21.796,13.9,MANUAL,0,0,0.0,0.0,0.0,0.5,0.5,CENTER_DUAL,280.6,-39.4,1.0,,
08:40:22.842,14.1,MANUAL,0,0,0.0,0.0,0.0,0.5,0.5,CENTER_DUAL,277.2,-42.8,1.0,,
08:40:23.842,13.3,MANUAL,0,0,0.0,0.0,0.0,0.5,0.5,CENTER_DUAL,279.2,-40.8,1.0,,
08:40:24.892,14.8,MANUAL,0,0,0.0,0.0,0.0,0.5,0.5,CENTER_DUAL,287.1,-32.9,1.0,,
08:40:25.898,14.2,MANUAL,0,0,0.0,0.0,0.0,0.5,0.5,CENTER_DUAL,279.7,-40.3,1.0,,
08:40:26.947,14.3,MANUAL,0,0,0.0,0.0,0.0,0.5,0.5,CENTER_DUAL,279.3,-40.7,1.0,,
08:40:28.008,13.4,MANUAL,0,0,0.0,0.0,0.0,0.5,0.5,CENTER_DUAL,308.6,-11.4,1.0,,
08:40:29.087,12.6,MANUAL,0,0,0.0,0.0,0.0,0.5,0.5,CENTER_DUAL,271.7,-48.3,1.0,,
08:40:30.117,12.9,MANUAL,0,0,0.0,0.0,0.0,0.5,0.5,CENTER_DUAL,273.6,-46.4,1.0,,
08:40:31.188,13.1,MANUAL,0,0,0.0,0.0,0.0,0.5,0.5,CENTER_DUAL,284.8,-35.2,1.0,,
08:40:32.195,13.7,MANUAL,0,0,0.0,0.0,0.0,0.5,0.5,CENTER_DUAL,278.4,-41.6,1.0,,
08:40:33.271,13.9,MANUAL,0,0,0.0,0.0,0.0,0.5,0.5,CENTER_DUAL,318.5,-1.5,1.0,,
08:40:34.277,12.2,MANUAL,0,0,0.0,0.0,0.0,0.5,0.5,CENTER_DUAL,287.1,-32.9,1.0,,
08:40:35.340,13.6,MANUAL,0,0,0.0,0.0,0.0,0.5,0.5,CENTER_DUAL,277.1,-42.9,1.0,,
08:40:36.343,13.6,MANUAL,0,0,0.0,0.0,0.0,0.5,0.5,CENTER_DUAL,290.5,-29.5,1.0,,
08:40:37.399,14.4,MANUAL,0,0,0.0,0.0,0.0,0.5,0.5,CENTER_DUAL,289.4,-30.6,1.0,,
08:40:38.404,13.4,MANUAL,0,0,0.0,0.0,0.0,0.5,0.5,CENTER_DUAL,291.0,-29.0,1.0,,
08:40:39.471,13.8,MANUAL,0,0,0.0,0.0,0.0,0.5,0.5,CENTER_DUAL,294.2,-25.8,1.0,,
08:40:40.474,13.0,MANUAL,0,0,0.0,0.0,0.0,0.5,0.5,CENTER_DUAL,323.7,3.7,1.0,,
08:40:41.536,12.4,MANUAL,0,0,0.0,0.0,0.0,0.5,0.5,CENTER_DUAL,325.4,5.4,1.0,,
08:40:42.577,13.1,MANUAL,0,0,0.0,0.0,0.0,0.5,0.5,CENTER_DUAL,286.5,-33.5,1.0,,
08:40:43.586,13.0,MANUAL,0,0,0.0,0.0,0.0,0.5,0.5,CENTER_DUAL,299.9,-20.1,1.0,,
08:40:44.635,12.8,MANUAL,0,0,0.0,0.0,0.0,0.5,0.5,CENTER_DUAL,292.3,-27.7,1.0,,
08:40:45.664,11.2,MANUAL,0,0,0.0,0.0,0.0,0.5,0.5,RIGHT_LANE_ONLY,397.9,77.9,0.5,,
08:40:46.725,14.1,MANUAL,0,0,0.0,0.0,0.0,0.5,0.5,CENTER_DUAL,293.0,-27.0,1.0,,
08:40:47.729,11.9,MANUAL,0,0,0.0,0.0,0.0,0.5,0.5,CENTER_DUAL,432.9,112.9,1.0,,
08:40:48.794,14.0,MANUAL,0,0,0.0,0.0,0.0,0.5,0.5,CENTER_DUAL,292.2,-27.8,1.0,,
08:40:49.876,11.5,MANUAL,0,0,0.0,0.0,0.0,0.5,0.5,CENTER_DUAL,436.6,116.6,1.0,,
08:40:50.920,13.8,MANUAL,0,0,0.0,0.0,0.0,0.5,0.5,CENTER_DUAL,293.1,-26.9,1.0,,
08:40:51.988,12.1,MANUAL,0,0,0.0,0.0,0.0,0.5,0.5,CENTER_DUAL,418.1,98.1,1.0,,
08:40:53.048,13.4,MANUAL,0,0,0.0,0.0,0.0,0.5,0.5,CENTER_DUAL,293.0,-27.0,1.0,,
08:40:54.102,12.2,MANUAL,0,0,0.0,0.0,0.0,0.5,0.5,CENTER_DUAL,286.0,-34.0,1.0,,
08:40:55.116,13.6,MANUAL,0,0,0.0,0.0,0.0,0.5,0.5,CENTER_DUAL,297.0,-23.0,1.0,,
08:40:56.169,13.2,MANUAL,0,0,0.0,0.0,0.0,0.5,0.5,CENTER_DUAL,294.0,-26.0,1.0,,
08:40:57.201,12.1,MANUAL,0,0,0.0,0.0,0.0,0.5,0.5,CENTER_DUAL,332.1,12.1,1.0,,
08:40:58.209,13.8,MANUAL,0,0,0.0,0.0,0.0,0.5,0.5,CENTER_DUAL,291.6,-28.4,1.0,,
08:40:59.216,12.3,MANUAL,0,0,0.0,0.0,0.0,0.5,0.5,CENTER_DUAL,297.1,-22.9,1.0,,
08:41:00.225,13.4,MANUAL,0,0,0.0,0.0,0.0,0.5,0.5,RIGHT_LANE_ONLY,387.5,67.5,0.5,,
08:41:01.283,13.5,MANUAL,0,0,0.0,0.0,0.0,0.5,0.5,CENTER_DUAL,288.9,-31.1,1.0,,
08:41:02.335,14.3,MANUAL,0,0,0.0,0.0,0.0,0.5,0.5,CENTER_DUAL,296.2,-23.8,1.0,,
08:41:03.379,12.6,MANUAL,0,0,0.0,0.0,0.0,0.5,0.5,RIGHT_LANE_ONLY,317.0,-3.0,0.5,,
08:41:04.422,14.3,MANUAL,0,0,0.0,0.0,0.0,0.5,0.5,CENTER_DUAL,414.7,94.7,1.0,,
08:41:05.462,12.6,MANUAL,0,0,0.0,0.0,0.0,0.5,0.5,RIGHT_LANE_ONLY,418.1,98.1,0.5,,
08:41:06.514,13.0,MANUAL,0,0,0.0,0.0,0.0,0.5,0.5,RIGHT_LANE_ONLY,423.9,103.9,0.5,,
08:41:07.550,13.4,MANUAL,0,0,0.0,0.0,0.0,0.5,0.5,RIGHT_LANE_ONLY,424.1,104.1,0.5,,
08:41:08.611,13.1,MANUAL,0,0,0.0,0.0,0.0,0.5,0.5,RIGHT_LANE_ONLY,424.6,104.6,0.5,,
08:41:09.642,13.9,MANUAL,0,0,0.0,0.0,0.0,0.5,0.5,RIGHT_LANE_ONLY,425.2,105.2,0.5,,
08:41:10.693,14.0,MANUAL,0,0,0.0,0.0,0.0,0.5,0.5,CENTER_DUAL,380.0,60.0,1.0,,
08:41:11.736,13.7,MANUAL,0,0,0.0,0.0,0.0,0.5,0.5,RIGHT_LANE_ONLY,383.0,63.0,0.5,,
08:41:12.785,13.6,MANUAL,0,0,0.0,0.0,0.0,0.5,0.5,CENTER_DUAL,365.7,45.7,1.0,,
08:41:13.831,13.7,MANUAL,0,0,0.0,0.0,0.0,0.5,0.5,RIGHT_LANE_ONLY,357.7,37.7,0.5,,
08:41:14.831,13.5,MANUAL,0,0,0.0,0.0,0.0,0.5,0.5,RIGHT_LANE_ONLY,357.0,37.0,0.5,,
08:41:15.881,13.5,MANUAL,0,0,0.0,0.0,0.0,0.5,0.5,RIGHT_LANE_ONLY,371.5,51.5,0.5,,
08:41:16.882,13.5,MANUAL,0,0,0.0,0.0,0.0,0.5,0.5,CENTER_DUAL,377.1,57.1,1.0,,
08:41:17.948,12.1,MANUAL,0,0,0.0,0.0,0.0,0.5,0.5,CENTER_DUAL,363.4,43.4,1.0,,
08:41:19.003,12.6,MANUAL,0,0,0.0,0.0,0.0,0.5,0.5,CENTER_DUAL,421.5,101.5,1.0,,
08:41:20.045,13.4,MANUAL,0,0,0.0,0.0,0.0,0.5,0.5,CENTER_DUAL,415.3,95.3,1.0,,
08:41:21.107,12.9,MANUAL,0,0,0.0,0.0,0.0,0.5,0.5,RIGHT_LANE_ONLY,391.1,71.1,0.5,,
08:41:22.138,13.2,MANUAL,0,0,0.0,0.0,0.0,0.5,0.5,CENTER_DUAL,367.2,47.2,1.0,,
08:41:23.196,13.2,MANUAL,0,0,0.0,0.0,0.0,0.5,0.5,RIGHT_LANE_ONLY,362.5,42.5,0.5,,
08:41:24.231,13.1,MANUAL,0,0,0.0,0.0,0.0,0.5,0.5,RIGHT_LANE_ONLY,360.1,40.1,0.5,,
08:41:25.280,13.6,MANUAL,0,0,0.0,0.0,0.0,0.5,0.5,CENTER_DUAL,363.9,43.9,1.0,,
08:41:26.332,12.5,MANUAL,0,0,0.0,0.0,0.0,0.5,0.5,RIGHT_LANE_ONLY,384.6,64.6,0.5,,
08:41:27.375,13.9,MANUAL,0,0,0.0,0.0,0.0,0.5,0.5,RIGHT_LANE_ONLY,386.2,66.2,0.5,,
08:41:28.425,12.7,MANUAL,0,0,0.0,0.0,0.0,0.5,0.5,RIGHT_LANE_ONLY,363.9,43.9,0.5,,
08:41:29.483,13.4,MANUAL,0,0,0.0,0.0,0.0,0.5,0.5,RIGHT_LANE_ONLY,360.4,40.4,0.5,,
08:41:30.487,13.0,MANUAL,0,0,0.0,0.0,0.0,0.5,0.5,RIGHT_LANE_ONLY,353.9,33.9,0.5,,
08:41:31.490,13.1,MANUAL,0,0,0.0,0.0,0.0,0.5,0.5,RIGHT_LANE_ONLY,352.6,32.6,0.5,,
08:41:32.548,12.6,MANUAL,0,0,0.0,0.0,0.0,0.5,0.5,CENTER_DUAL,391.0,71.0,1.0,,
08:41:33.563,13.9,MANUAL,0,0,0.0,0.0,0.0,0.5,0.5,CENTER_DUAL,299.8,-20.2,1.0,,
08:41:34.595,12.3,MANUAL,0,0,0.0,0.0,0.0,0.5,0.5,CENTER_DUAL,431.7,111.7,1.0,,
08:41:35.622,12.5,MANUAL,0,0,0.0,0.0,0.0,0.5,0.5,CENTER_DUAL,291.2,-28.8,1.0,,
08:41:36.674,12.0,MANUAL,0,0,0.0,0.0,0.0,0.5,0.5,CENTER_DUAL,448.5,128.5,1.0,,
08:41:37.748,13.2,MANUAL,0,0,0.0,0.0,0.0,0.5,0.5,CENTER_DUAL,362.4,42.4,1.0,,
08:41:38.812,13.3,MANUAL,0,0,0.0,0.0,0.0,0.5,0.5,CENTER_DUAL,292.7,-27.3,1.0,,
08:41:39.871,13.4,MANUAL,0,0,0.0,0.0,0.0,0.5,0.5,CENTER_DUAL,443.9,123.9,1.0,,
08:41:40.884,11.4,MANUAL,0,0,0.0,0.0,0.0,0.5,0.5,CENTER_DUAL,280.2,-39.8,1.0,,
08:41:41.927,12.3,MANUAL,0,0,0.0,0.0,0.0,0.5,0.5,CENTER_DUAL,298.1,-21.9,1.0,,
08:41:42.928,12.8,MANUAL,0,0,0.0,0.0,0.0,0.5,0.5,CENTER_DUAL,283.5,-36.5,1.0,,
08:41:43.967,13.0,MANUAL,0,0,0.0,0.0,0.0,0.5,0.5,CENTER_DUAL,299.8,-20.2,1.0,,
08:41:45.015,13.9,MANUAL,0,0,0.0,0.0,0.0,0.5,0.5,CENTER_DUAL,288.8,-31.2,1.0,,
08:41:46.048,11.6,MANUAL,0,0,0.0,0.0,0.0,0.5,0.5,CENTER_DUAL,434.7,114.7,1.0,,
08:41:47.052,13.0,MANUAL,0,0,0.0,0.0,0.0,0.5,0.5,CENTER_DUAL,309.0,-11.0,1.0,,
08:41:48.071,11.7,MANUAL,0,0,0.0,0.0,0.0,0.5,0.5,CENTER_DUAL,444.5,124.5,1.0,,
08:41:49.124,13.3,MANUAL,0,0,0.0,0.0,0.0,0.5,0.5,CENTER_DUAL,294.5,-25.5,1.0,,
08:41:50.178,12.5,MANUAL,0,0,0.0,0.0,0.0,0.5,0.5,CENTER_DUAL,371.6,51.6,1.0,,
08:41:51.217,13.3,MANUAL,0,0,0.0,0.0,0.0,0.5,0.5,CENTER_DUAL,292.1,-27.9,1.0,,
08:41:52.248,13.8,MANUAL,0,0,0.0,0.0,0.0,0.5,0.5,CENTER_DUAL,288.2,-31.8,1.0,,
08:41:53.280,12.5,MANUAL,0,0,0.0,0.0,0.0,0.5,0.5,CENTER_DUAL,320.7,0.7,1.0,,
08:41:54.332,12.9,MANUAL,0,0,0.0,0.0,0.0,0.5,0.5,CENTER_DUAL,289.6,-30.4,1.0,,
08:41:55.403,11.6,MANUAL,0,0,0.0,0.0,0.0,0.5,0.5,CENTER_DUAL,392.9,72.9,1.0,,
08:41:56.404,12.9,MANUAL,0,0,0.0,0.0,0.0,0.5,0.5,CENTER_DUAL,289.2,-30.8,1.0,,
08:41:57.468,13.6,MANUAL,0,0,0.0,0.0,0.0,0.5,0.5,CENTER_DUAL,274.2,-45.8,1.0,,
08:41:58.505,12.9,MANUAL,0,0,0.0,0.0,0.0,0.5,0.5,CENTER_DUAL,290.8,-29.2,1.0,,
08:41:59.546,13.8,MANUAL,0,0,0.0,0.0,0.0,0.5,0.5,CENTER_DUAL,286.7,-33.3,1.0,,
08:42:00.559,11.5,MANUAL,0,0,0.0,0.0,0.0,0.5,0.5,CENTER_DUAL,314.9,-5.1,1.0,,
08:42:01.622,13.4,MANUAL,0,0,0.0,0.0,0.0,0.5,0.5,CENTER_DUAL,289.6,-30.4,1.0,,
08:42:02.638,12.3,MANUAL,0,0,0.0,0.0,0.0,0.5,0.5,CENTER_DUAL,277.4,-42.6,1.0,,
08:42:03.664,13.6,MANUAL,0,0,0.0,0.0,0.0,0.5,0.5,CENTER_DUAL,290.9,-29.1,1.0,,
08:42:04.677,13.4,MANUAL,0,0,0.0,0.0,0.0,0.5,0.5,CENTER_DUAL,287.8,-32.2,1.0,,
08:42:05.703,13.1,MANUAL,0,0,0.0,0.0,0.0,0.5,0.5,CENTER_DUAL,288.6,-31.4,1.0,,
08:42:06.764,12.8,MANUAL,0,0,0.0,0.0,0.0,0.5,0.5,RIGHT_LANE_ONLY,324.3,4.3,0.5,,
08:42:07.800,14.3,MANUAL,0,0,0.0,0.0,0.0,0.5,0.5,RIGHT_LANE_ONLY,326.1,6.1,0.5,,
08:42:08.849,13.2,MANUAL,0,0,0.0,0.0,0.0,0.5,0.5,RIGHT_LANE_ONLY,327.0,7.0,0.5,,
08:42:09.883,13.4,MANUAL,0,0,0.0,0.0,0.0,0.5,0.5,RIGHT_LANE_ONLY,326.5,6.5,0.5,,
08:42:10.949,13.5,MANUAL,0,0,0.0,0.0,0.0,0.5,0.5,RIGHT_LANE_ONLY,326.8,6.8,0.5,,
08:42:11.995,13.9,MANUAL,0,0,0.0,0.0,0.0,0.5,0.5,RIGHT_LANE_ONLY,327.2,7.2,0.5,,
08:42:13.046,12.9,MANUAL,0,0,0.0,0.0,0.0,0.5,0.5,RIGHT_LANE_ONLY,326.7,6.7,0.5,,
08:42:14.086,12.6,MANUAL,0,0,0.0,0.0,0.0,0.5,0.5,RIGHT_LANE_ONLY,326.8,6.8,0.5,,
08:42:15.140,12.8,MANUAL,0,0,0.0,0.0,0.0,0.5,0.5,RIGHT_LANE_ONLY,327.4,7.4,0.5,,
08:42:16.195,12.6,MANUAL,0,0,0.0,0.0,0.0,0.5,0.5,RIGHT_LANE_ONLY,326.9,6.9,0.5,,
08:42:17.247,13.4,MANUAL,0,0,0.0,0.0,0.0,0.5,0.5,RIGHT_LANE_ONLY,326.6,6.6,0.5,,
08:42:18.280,13.2,MANUAL,0,0,0.0,0.0,0.0,0.5,0.5,RIGHT_LANE_ONLY,327.0,7.0,0.5,,
08:42:19.326,13.5,MANUAL,0,0,0.0,0.0,0.0,0.5,0.5,RIGHT_LANE_ONLY,326.8,6.8,0.5,,
08:42:20.348,13.9,MANUAL,0,0,0.0,0.0,0.0,0.5,0.5,RIGHT_LANE_ONLY,326.8,6.8,0.5,,
08:42:21.396,13.7,MANUAL,0,0,0.0,0.0,0.0,0.5,0.5,RIGHT_LANE_ONLY,328.0,8.0,0.5,,
08:42:22.464,12.5,MANUAL,0,0,0.0,0.0,0.0,0.5,0.5,RIGHT_LANE_ONLY,330.2,10.2,0.5,,
08:42:23.515,12.8,MANUAL,0,0,0.0,0.0,0.0,0.5,0.5,RIGHT_LANE_ONLY,331.8,11.8,0.5,,
08:42:24.539,14.0,MANUAL,0,0,0.0,0.0,0.0,0.5,0.5,RIGHT_LANE_ONLY,344.4,24.4,0.5,,
08:42:25.553,14.6,MANUAL,0,0,0.0,0.0,0.0,0.5,0.5,RIGHT_LANE_ONLY,372.3,52.3,0.5,,
08:42:26.594,14.6,MANUAL,0,0,0.0,0.0,0.0,0.5,0.5,RIGHT_LANE_ONLY,374.3,54.3,0.5,,
08:42:27.609,14.9,MANUAL,0,0,0.0,0.0,0.0,0.5,0.5,RIGHT_LANE_ONLY,375.7,55.7,0.5,,
08:42:28.612,15.3,MANUAL,0,0,0.0,0.0,0.0,0.5,0.5,RIGHT_LANE_ONLY,383.6,63.6,0.5,,
08:42:29.649,14.5,MANUAL,0,0,0.0,0.0,0.0,0.5,0.5,RIGHT_LANE_ONLY,391.4,71.4,0.5,,
08:42:30.715,13.9,MANUAL,0,0,0.0,0.0,0.0,0.5,0.5,RIGHT_LANE_ONLY,332.1,12.1,0.5,,
08:42:31.735,14.0,MANUAL,0,0,0.0,0.0,0.0,0.5,0.5,RIGHT_LANE_ONLY,342.7,22.7,0.5,,
08:42:32.759,13.4,MANUAL,0,0,0.0,0.0,0.0,0.5,0.5,RIGHT_LANE_ONLY,346.3,26.3,0.5,,
08:42:33.793,13.3,MANUAL,0,0,0.0,0.0,0.0,0.5,0.5,RIGHT_LANE_ONLY,348.0,28.0,0.5,,
08:42:34.810,10.9,MANUAL,0,0,0.0,0.0,0.0,0.5,0.5,CENTER_DUAL,364.9,44.9,1.0,,
08:42:35.819,13.9,MANUAL,0,0,0.0,0.0,0.0,0.5,0.5,CENTER_DUAL,379.7,59.7,1.0,,
08:42:36.893,11.8,MANUAL,0,0,0.0,0.0,0.0,0.5,0.5,RIGHT_LANE_ONLY,384.0,64.0,0.5,,
08:42:37.894,10.6,MANUAL,0,0,0.0,0.0,0.0,0.5,0.5,CENTER_DUAL,362.3,42.3,1.0,,
08:42:38.943,11.9,MANUAL,0,0,0.0,0.0,0.0,0.5,0.5,CENTER_DUAL,365.4,45.4,1.0,,
08:42:39.953,13.2,MANUAL,0,0,0.0,0.0,0.0,0.5,0.5,RIGHT_LANE_ONLY,379.3,59.3,0.5,,
08:42:41.042,6.2,MANUAL,0,0,0.0,0.0,0.0,0.5,0.5,CENTER_DUAL,386.8,66.8,1.0,,
08:42:42.085,13.3,MANUAL,0,0,0.0,0.0,0.0,0.5,0.5,CENTER_DUAL,363.1,43.1,1.0,,
08:42:43.140,12.2,MANUAL,0,0,0.0,0.0,0.0,0.5,0.5,CENTER_DUAL,402.8,82.8,1.0,,
08:42:44.157,13.1,MANUAL,0,0,0.0,0.0,0.0,0.5,0.5,RIGHT_LANE_ONLY,371.3,51.3,0.5,,
08:42:45.157,12.2,MANUAL,0,0,0.0,0.0,0.0,0.5,0.5,CENTER_DUAL,361.4,41.4,1.0,,
08:42:46.182,12.9,MANUAL,0,0,0.0,0.0,0.0,0.5,0.5,RIGHT_LANE_ONLY,364.0,44.0,0.5,,
08:42:47.252,13.2,MANUAL,0,0,0.0,0.0,0.0,0.5,0.5,CENTER_DUAL,366.6,46.6,1.0,,
08:42:48.286,13.4,MANUAL,0,0,0.0,0.0,0.0,0.5,0.5,RIGHT_LANE_ONLY,366.1,46.1,0.5,,
08:42:49.308,11.4,MANUAL,0,0,0.0,0.0,0.0,0.5,0.5,RIGHT_LANE_ONLY,371.2,51.2,0.5,,
08:42:50.372,13.5,MANUAL,0,0,0.0,0.0,0.0,0.5,0.5,RIGHT_LANE_ONLY,338.8,18.8,0.5,,
08:42:51.376,12.8,MANUAL,0,0,0.0,0.0,0.0,0.5,0.5,CENTER_DUAL,326.8,6.8,1.0,,
08:42:52.452,13.9,MANUAL,0,0,0.0,0.0,0.0,0.5,0.5,CENTER_DUAL,352.7,32.7,1.0,,
08:42:53.490,11.5,MANUAL,0,0,0.0,0.0,0.0,0.5,0.5,CENTER_DUAL,339.0,19.0,1.0,,
08:42:54.548,13.4,MANUAL,0,0,0.0,0.0,0.0,0.5,0.5,RIGHT_LANE_ONLY,349.1,29.1,0.5,,
08:42:55.564,13.0,MANUAL,0,0,0.0,0.0,0.0,0.5,0.5,CENTER_DUAL,350.3,30.3,1.0,,
08:42:56.575,12.7,MANUAL,0,0,0.0,0.0,0.0,0.5,0.5,CENTER_DUAL,336.1,16.1,1.0,,
08:42:57.650,13.5,MANUAL,0,0,0.0,0.0,0.0,0.5,0.5,RIGHT_LANE_ONLY,355.1,35.1,0.5,,
08:42:58.656,12.6,MANUAL,0,0,0.0,0.0,0.0,0.5,0.5,CENTER_DUAL,354.8,34.8,1.0,,
08:42:59.703,13.3,MANUAL,0,0,0.0,0.0,0.0,0.5,0.5,CENTER_DUAL,346.8,26.8,1.0,,
08:43:00.750,12.5,MANUAL,0,0,0.0,0.0,0.0,0.5,0.5,CENTER_DUAL,328.0,8.0,1.0,,
08:43:01.814,12.8,MANUAL,0,0,0.0,0.0,0.0,0.5,0.5,CENTER_DUAL,360.0,40.0,1.0,,
08:43:02.870,13.4,MANUAL,0,0,0.0,0.0,0.0,0.5,0.5,RIGHT_LANE_ONLY,375.1,55.1,0.5,,
08:43:03.939,13.0,MANUAL,0,0,0.0,0.0,0.0,0.5,0.5,RIGHT_LANE_ONLY,357.9,37.9,0.5,,
08:43:04.987,13.4,MANUAL,0,0,0.0,0.0,0.0,0.5,0.5,RIGHT_LANE_ONLY,345.6,25.6,0.5,,
08:43:06.062,13.3,MANUAL,0,0,0.0,0.0,0.0,0.5,0.5,RIGHT_LANE_ONLY,345.3,25.3,0.5,,
08:43:07.109,13.7,MANUAL,0,0,0.0,0.0,0.0,0.5,0.5,RIGHT_LANE_ONLY,341.7,21.7,0.5,,
08:43:08.177,13.1,MANUAL,0,0,0.0,0.0,0.0,0.5,0.5,RIGHT_LANE_ONLY,322.6,2.6,0.5,,
08:43:09.238,13.0,MANUAL,0,0,0.0,0.0,0.0,0.5,0.5,RIGHT_LANE_ONLY,333.4,13.4,0.5,,
08:43:10.299,12.5,MANUAL,0,0,0.0,0.0,0.0,0.5,0.5,RIGHT_LANE_ONLY,322.4,2.4,0.5,,
08:43:11.352,13.4,MANUAL,0,0,0.0,0.0,0.0,0.5,0.5,RIGHT_LANE_ONLY,341.1,21.1,0.5,,
08:43:12.404,13.2,MANUAL,0,0,0.0,0.0,0.0,0.5,0.5,RIGHT_LANE_ONLY,339.9,19.9,0.5,,
08:43:13.454,13.8,MANUAL,0,0,0.0,0.0,0.0,0.5,0.5,RIGHT_LANE_ONLY,334.8,14.8,0.5,,
08:43:14.522,12.7,MANUAL,0,0,0.0,0.0,0.0,0.5,0.5,RIGHT_LANE_ONLY,341.7,21.7,0.5,,
08:43:15.583,12.4,MANUAL,0,0,0.0,0.0,0.0,0.5,0.5,CENTER_DUAL,318.6,-1.4,1.0,,
08:43:16.648,12.2,MANUAL,0,0,0.0,0.0,0.0,0.5,0.5,CENTER_DUAL,324.3,4.3,1.0,,
08:43:17.722,13.0,MANUAL,0,0,0.0,0.0,0.0,0.5,0.5,CENTER_DUAL,376.6,56.6,1.0,,
08:43:18.795,12.5,MANUAL,0,0,0.0,0.0,0.0,0.5,0.5,CENTER_DUAL,392.7,72.7,1.0,,
08:43:19.857,12.9,MANUAL,0,0,0.0,0.0,0.0,0.5,0.5,CENTER_DUAL,392.0,72.0,1.0,,
08:43:20.933,13.4,MANUAL,0,0,0.0,0.0,0.0,0.5,0.5,CENTER_DUAL,409.6,89.6,1.0,,
08:43:21.940,13.1,MANUAL,0,0,0.0,0.0,0.0,0.5,0.5,CENTER_DUAL,395.7,75.7,1.0,,
08:43:23.005,13.2,MANUAL,0,0,0.0,0.0,0.0,0.5,0.5,CENTER_DUAL,416.3,96.3,1.0,,
08:43:24.012,12.9,MANUAL,0,0,0.0,0.0,0.0,0.5,0.5,CENTER_DUAL,412.6,92.6,1.0,,
08:43:25.023,12.0,MANUAL,0,0,0.0,0.0,0.0,0.5,0.5,CENTER_DUAL,400.5,80.5,1.0,,
08:43:26.024,12.9,MANUAL,0,0,0.0,0.0,0.0,0.5,0.5,RIGHT_LANE_ONLY,386.1,66.1,0.5,,
08:43:27.064,13.1,MANUAL,0,0,0.0,0.0,0.0,0.5,0.5,CENTER_DUAL,391.6,71.6,1.0,,
08:43:28.136,13.5,MANUAL,0,0,0.0,0.0,0.0,0.5,0.5,CENTER_DUAL,377.0,57.0,1.0,,
08:43:29.146,13.5,MANUAL,0,0,0.0,0.0,0.0,0.5,0.5,CENTER_DUAL,323.6,3.6,1.0,,
08:43:30.219,13.3,MANUAL,0,0,0.0,0.0,0.0,0.5,0.5,CENTER_DUAL,339.4,19.4,1.0,,
08:43:31.258,11.8,MANUAL,0,0,0.0,0.0,0.0,0.5,0.5,CENTER_DUAL,337.1,17.1,1.0,,
08:43:32.290,12.8,MANUAL,0,0,0.0,0.0,0.0,0.5,0.5,CENTER_DUAL,403.8,83.8,1.0,,
08:43:33.296,12.9,MANUAL,0,0,0.0,0.0,0.0,0.5,0.5,CENTER_DUAL,361.4,41.4,1.0,,
08:43:34.353,13.2,MANUAL,0,0,0.0,0.0,0.0,0.5,0.5,CENTER_DUAL,315.9,-4.1,1.0,,
08:43:35.353,13.1,MANUAL,0,0,0.0,0.0,0.0,0.5,0.5,CENTER_DUAL,418.6,98.6,1.0,,
08:43:36.359,12.8,MANUAL,0,0,0.0,0.0,0.0,0.5,0.5,CENTER_DUAL,391.2,71.2,1.0,,
08:43:37.370,13.7,MANUAL,0,0,0.0,0.0,0.0,0.5,0.5,CENTER_DUAL,325.8,5.8,1.0,,
08:43:38.383,13.2,MANUAL,0,0,0.0,0.0,0.0,0.5,0.5,CENTER_DUAL,416.9,96.9,1.0,,
08:43:39.407,13.1,MANUAL,0,0,0.0,0.0,0.0,0.5,0.5,CENTER_DUAL,341.8,21.8,1.0,,
08:43:40.425,13.6,MANUAL,0,0,0.0,0.0,0.0,0.5,0.5,CENTER_DUAL,294.2,-25.8,1.0,,
08:43:41.489,13.2,MANUAL,0,0,0.0,0.0,0.0,0.5,0.5,CENTER_DUAL,316.6,-3.4,1.0,,
08:43:42.521,13.6,MANUAL,0,0,0.0,0.0,0.0,0.5,0.5,CENTER_DUAL,316.0,-4.0,1.0,,
08:43:43.590,13.2,MANUAL,0,0,0.0,0.0,0.0,0.5,0.5,CENTER_DUAL,467.8,147.8,1.0,,
08:43:44.605,13.3,MANUAL,0,0,0.0,0.0,0.0,0.5,0.5,CENTER_DUAL,512.6,192.6,1.0,,
08:43:45.664,13.3,MANUAL,0,0,0.0,0.0,0.0,0.5,0.5,CENTER_DUAL,295.7,-24.3,1.0,,
08:43:46.675,12.4,MANUAL,0,0,0.0,0.0,0.0,0.5,0.5,CENTER_DUAL,314.6,-5.4,1.0,,
08:43:47.735,13.1,MANUAL,0,0,0.0,0.0,0.0,0.5,0.5,CENTER_DUAL,318.7,-1.3,1.0,,
08:43:48.789,13.5,MANUAL,0,0,0.0,0.0,0.0,0.5,0.5,CENTER_DUAL,319.5,-0.5,1.0,,
08:43:49.862,12.2,MANUAL,0,0,0.0,0.0,0.0,0.5,0.5,CENTER_DUAL,315.5,-4.5,1.0,,
08:43:50.932,13.3,MANUAL,0,0,0.0,0.0,0.0,0.5,0.5,CENTER_DUAL,270.1,-49.9,1.0,,
08:43:51.957,13.0,MANUAL,0,0,0.0,0.0,0.0,0.5,0.5,CENTER_DUAL,266.6,-53.4,1.0,,
08:43:53.016,12.7,MANUAL,0,0,0.0,0.0,0.0,0.5,0.5,CENTER_DUAL,317.1,-2.9,1.0,,
08:43:54.085,11.9,MANUAL,0,0,0.0,0.0,0.0,0.5,0.5,CENTER_DUAL,326.1,6.1,1.0,,
08:43:55.121,12.8,MANUAL,0,0,0.0,0.0,0.0,0.5,0.5,CENTER_DUAL,323.8,3.8,1.0,,
08:43:56.134,12.4,MANUAL,0,0,0.0,0.0,0.0,0.5,0.5,CENTER_DUAL,327.2,7.2,1.0,,
08:43:57.192,13.0,MANUAL,0,0,0.0,0.0,0.0,0.5,0.5,RIGHT_LANE_ONLY,378.8,58.8,0.5,,
08:43:58.200,12.4,MANUAL,0,0,0.0,0.0,0.0,0.5,0.5,CENTER_DUAL,353.1,33.1,1.0,,
08:43:59.214,13.3,MANUAL,0,0,0.0,0.0,0.0,0.5,0.5,CENTER_DUAL,337.2,17.2,1.0,,
08:44:00.242,12.4,MANUAL,0,0,0.0,0.0,0.0,0.5,0.5,CENTER_DUAL,365.5,45.5,1.0,,
08:44:01.256,13.0,MANUAL,0,0,0.0,0.0,0.0,0.5,0.5,CENTER_DUAL,343.0,23.0,1.0,,
08:44:02.269,12.7,MANUAL,0,0,0.0,0.0,0.0,0.5,0.5,CENTER_DUAL,332.1,12.1,1.0,,
08:44:03.283,12.6,MANUAL,0,0,0.0,0.0,0.0,0.5,0.5,CENTER_DUAL,381.8,61.8,1.0,,
08:44:04.357,12.2,MANUAL,0,0,0.0,0.0,0.0,0.5,0.5,CENTER_DUAL,388.0,68.0,1.0,,
08:44:05.378,12.6,MANUAL,0,0,0.0,0.0,0.0,0.5,0.5,CENTER_DUAL,421.3,101.3,1.0,,
08:44:06.387,13.0,MANUAL,0,0,0.0,0.0,0.0,0.5,0.5,CENTER_DUAL,429.1,109.1,1.0,,
08:44:07.442,13.4,MANUAL,0,0,0.0,0.0,0.0,0.5,0.5,CENTER_DUAL,406.6,86.6,1.0,,
08:44:08.478,13.7,MANUAL,0,0,0.0,0.0,0.0,0.5,0.5,CENTER_DUAL,310.7,-9.3,1.0,,
08:44:09.510,13.3,MANUAL,0,0,0.0,0.0,0.0,0.5,0.5,CENTER_DUAL,263.1,-56.9,1.0,,
08:44:10.514,13.2,MANUAL,0,0,0.0,0.0,0.0,0.5,0.5,CENTER_DUAL,258.1,-61.9,1.0,,
08:44:11.540,13.9,MANUAL,0,0,0.0,0.0,0.0,0.5,0.5,CENTER_DUAL,258.3,-61.7,1.0,,
08:44:12.581,13.6,MANUAL,0,0,0.0,0.0,0.0,0.5,0.5,CENTER_DUAL,348.5,28.5,1.0,,
08:44:13.626,13.9,MANUAL,0,0,0.0,0.0,0.0,0.5,0.5,CENTER_DUAL,398.2,78.2,1.0,,
08:44:14.631,13.5,MANUAL,0,0,0.0,0.0,0.0,0.5,0.5,CENTER_DUAL,417.1,97.1,1.0,,
08:44:15.651,13.6,MANUAL,0,0,0.0,0.0,0.0,0.5,0.5,RIGHT_LANE_ONLY,428.4,108.4,0.5,,
08:44:16.717,12.9,MANUAL,0,0,0.0,0.0,0.0,0.5,0.5,RIGHT_LANE_ONLY,437.6,117.6,0.5,,
08:44:17.764,13.5,MANUAL,0,0,0.0,0.0,0.0,0.5,0.5,CENTER_DUAL,284.4,-35.6,1.0,,
08:44:18.834,13.6,MANUAL,0,0,0.0,0.0,0.0,0.5,0.5,CENTER_DUAL,466.2,146.2,1.0,,
08:44:19.858,12.7,MANUAL,0,0,0.0,0.0,0.0,0.5,0.5,CENTER_DUAL,403.7,83.7,1.0,,
08:44:20.874,12.7,MANUAL,0,0,0.0,0.0,0.0,0.5,0.5,CENTER_DUAL,431.3,111.3,1.0,,
08:44:21.918,12.8,MANUAL,0,0,0.0,0.0,0.0,0.5,0.5,CENTER_DUAL,432.5,112.5,1.0,,
08:44:22.951,13.0,MANUAL,0,0,0.0,0.0,0.0,0.5,0.5,CENTER_DUAL,433.1,113.1,1.0,,
08:44:23.979,12.8,MANUAL,0,0,0.0,0.0,0.0,0.5,0.5,CENTER_DUAL,433.4,113.4,1.0,,
08:44:25.014,12.6,MANUAL,0,0,0.0,0.0,0.0,0.5,0.5,CENTER_DUAL,433.8,113.8,1.0,,
08:44:26.058,12.6,MANUAL,0,0,0.0,0.0,0.0,0.5,0.5,CENTER_DUAL,434.7,114.7,1.0,,
08:44:27.135,12.2,MANUAL,0,0,0.0,0.0,0.0,0.5,0.5,CENTER_DUAL,435.2,115.2,1.0,,
08:44:28.197,12.6,MANUAL,0,0,0.0,0.0,0.0,0.5,0.5,CENTER_DUAL,435.1,115.1,1.0,,
08:44:29.201,12.4,MANUAL,0,0,0.0,0.0,0.0,0.5,0.5,CENTER_DUAL,434.9,114.9,1.0,,
08:44:30.273,13.3,MANUAL,0,0,0.0,0.0,0.0,0.5,0.5,CENTER_DUAL,329.9,9.9,1.0,,
08:44:31.278,13.9,MANUAL,0,0,0.0,0.0,0.0,0.5,0.5,CENTER_DUAL,324.3,4.3,1.0,,
08:44:32.342,14.3,MANUAL,0,0,0.0,0.0,0.0,0.5,0.5,CENTER_DUAL,320.2,0.2,1.0,,
08:44:33.361,13.5,MANUAL,0,0,0.0,0.0,0.0,0.5,0.5,CENTER_DUAL,334.0,14.0,1.0,,
08:44:34.418,14.6,MANUAL,0,0,0.0,0.0,0.0,0.5,0.5,CENTER_DUAL,357.7,37.7,1.0,,
08:44:35.471,13.7,MANUAL,0,0,0.0,0.0,0.0,0.5,0.5,RIGHT_LANE_ONLY,366.7,46.7,0.5,,
08:44:36.516,13.9,MANUAL,0,0,0.0,0.0,0.0,0.5,0.5,RIGHT_LANE_ONLY,366.2,46.2,0.5,,
08:44:37.540,15.0,MANUAL,0,0,0.0,0.0,0.0,0.5,0.5,CENTER_DUAL,410.6,90.6,1.0,,
08:44:38.544,13.9,MANUAL,0,0,0.0,0.0,0.0,0.5,0.5,CENTER_DUAL,439.1,119.1,1.0,,
08:44:39.593,14.4,MANUAL,0,0,0.0,0.0,0.0,0.5,0.5,CENTER_DUAL,316.3,-3.7,1.0,,
08:44:40.612,12.1,MANUAL,0,0,0.0,0.0,0.0,0.5,0.5,CENTER_DUAL,320.9,0.9,1.0,,
08:44:41.619,14.3,MANUAL,0,0,0.0,0.0,0.0,0.5,0.5,CENTER_DUAL,332.2,12.2,1.0,,
08:44:42.626,14.0,MANUAL,0,0,0.0,0.0,0.0,0.5,0.5,CENTER_DUAL,334.2,14.2,1.0,,
08:44:43.634,14.1,MANUAL,0,0,0.0,0.0,0.0,0.5,0.5,CENTER_DUAL,336.3,16.3,1.0,,
08:44:44.684,11.0,MANUAL,0,0,0.0,0.0,0.0,0.5,0.5,CENTER_DUAL,346.0,26.0,1.0,,
08:44:45.744,13.4,MANUAL,0,0,0.0,0.0,0.0,0.5,0.5,CENTER_DUAL,349.6,29.6,1.0,,
08:44:46.776,13.8,MANUAL,0,0,0.0,0.0,0.0,0.5,0.5,CENTER_DUAL,350.9,30.9,1.0,,
08:44:47.784,14.2,MANUAL,0,0,0.0,0.0,0.0,0.5,0.5,CENTER_DUAL,351.1,31.1,1.0,,
08:44:48.794,13.7,MANUAL,0,0,0.0,0.0,0.0,0.5,0.5,CENTER_DUAL,350.9,30.9,1.0,,
08:44:49.802,13.9,MANUAL,0,0,0.0,0.0,0.0,0.5,0.5,CENTER_DUAL,350.9,30.9,1.0,,
08:44:50.811,14.2,MANUAL,0,0,0.0,0.0,0.0,0.5,0.5,CENTER_DUAL,350.8,30.8,1.0,,
08:44:51.819,14.2,MANUAL,0,0,0.0,0.0,0.0,0.5,0.5,CENTER_DUAL,350.9,30.9,1.0,,
08:44:52.823,14.1,MANUAL,0,0,0.0,0.0,0.0,0.5,0.5,CENTER_DUAL,350.7,30.7,1.0,,
08:44:53.830,13.8,MANUAL,0,0,0.0,0.0,0.0,0.5,0.5,CENTER_DUAL,350.8,30.8,1.0,,
08:44:54.843,13.4,MANUAL,0,0,0.0,0.0,0.0,0.5,0.5,CENTER_DUAL,350.8,30.8,1.0,,
08:44:55.847,14.1,MANUAL,0,0,0.0,0.0,0.0,0.5,0.5,CENTER_DUAL,350.8,30.8,1.0,,
08:44:56.849,13.8,MANUAL,0,0,0.0,0.0,0.0,0.5,0.5,CENTER_DUAL,350.8,30.8,1.0,,
08:44:57.852,14.0,MANUAL,0,0,0.0,0.0,0.0,0.5,0.5,CENTER_DUAL,350.7,30.7,1.0,,
08:44:58.858,14.2,MANUAL,0,0,0.0,0.0,0.0,0.5,0.5,CENTER_DUAL,350.7,30.7,1.0,,
08:44:59.861,14.3,MANUAL,0,0,0.0,0.0,0.0,0.5,0.5,CENTER_DUAL,350.8,30.8,1.0,,
08:45:00.874,13.7,MANUAL,0,0,0.0,0.0,0.0,0.5,0.5,CENTER_DUAL,350.8,30.8,1.0,,
08:45:01.881,13.4,MANUAL,0,0,0.0,0.0,0.0,0.5,0.5,CENTER_DUAL,350.9,30.9,1.0,,
08:45:02.886,12.9,MANUAL,0,0,0.0,0.0,0.0,0.5,0.5,CENTER_DUAL,351.0,31.0,1.0,,
08:45:03.895,14.0,MANUAL,0,0,0.0,0.0,0.0,0.5,0.5,CENTER_DUAL,352.1,32.1,1.0,,
08:45:04.967,13.9,MANUAL,0,0,0.0,0.0,0.0,0.5,0.5,CENTER_DUAL,352.2,32.2,1.0,,
08:45:05.972,14.1,MANUAL,0,0,0.0,0.0,0.0,0.5,0.5,CENTER_DUAL,352.3,32.3,1.0,,
08:45:06.983,13.8,MANUAL,0,0,0.0,0.0,0.0,0.5,0.5,CENTER_DUAL,352.3,32.3,1.0,,
08:45:07.988,14.2,MANUAL,0,0,0.0,0.0,0.0,0.5,0.5,CENTER_DUAL,352.2,32.2,1.0,,
08:45:08.989,13.7,MANUAL,0,0,0.0,0.0,0.0,0.5,0.5,CENTER_DUAL,352.2,32.2,1.0,,
08:45:10.058,14.2,MANUAL,0,0,0.0,0.0,0.0,0.5,0.5,CENTER_DUAL,352.0,32.0,1.0,,
08:45:11.061,13.3,MANUAL,0,0,0.0,0.0,0.0,0.5,0.5,CENTER_DUAL,351.6,31.6,1.0,,
08:45:12.064,13.1,MANUAL,0,0,0.0,0.0,0.0,0.5,0.5,CENTER_DUAL,351.8,31.8,1.0,,
08:45:13.077,13.4,MANUAL,0,0,0.0,0.0,0.0,0.5,0.5,CENTER_DUAL,351.7,31.7,1.0,,
08:45:14.084,13.8,MANUAL,0,0,0.0,0.0,0.0,0.5,0.5,CENTER_DUAL,351.8,31.8,1.0,,
08:45:15.100,13.7,MANUAL,0,0,0.0,0.0,0.0,0.5,0.5,CENTER_DUAL,351.8,31.8,1.0,,
08:45:16.120,13.8,MANUAL,0,0,0.0,0.0,0.0,0.5,0.5,CENTER_DUAL,351.7,31.7,1.0,,
08:45:17.136,13.5,MANUAL,0,0,0.0,0.0,0.0,0.5,0.5,CENTER_DUAL,351.7,31.7,1.0,,
08:45:18.137,13.9,MANUAL,0,0,0.0,0.0,0.0,0.5,0.5,CENTER_DUAL,351.5,31.5,1.0,,
08:45:19.146,13.6,MANUAL,0,0,0.0,0.0,0.0,0.5,0.5,CENTER_DUAL,351.6,31.6,1.0,,
08:45:20.151,14.1,MANUAL,0,0,0.0,0.0,0.0,0.5,0.5,CENTER_DUAL,351.3,31.3,1.0,,
08:45:21.162,13.8,MANUAL,0,0,0.0,0.0,0.0,0.5,0.5,CENTER_DUAL,351.6,31.6,1.0,,
08:45:22.185,11.9,MANUAL,0,0,0.0,0.0,0.0,0.5,0.5,CENTER_DUAL,351.7,31.7,1.0,,
08:45:23.194,14.0,MANUAL,0,0,0.0,0.0,0.0,0.5,0.5,CENTER_DUAL,356.5,36.5,1.0,,
08:45:24.254,14.3,MANUAL,0,0,0.0,0.0,0.0,0.5,0.5,CENTER_DUAL,362.6,42.6,1.0,,
08:45:25.321,13.9,MANUAL,0,0,0.0,0.0,0.0,0.5,0.5,CENTER_DUAL,368.2,48.2,1.0,,
08:45:26.366,14.2,MANUAL,0,0,0.0,0.0,0.0,0.5,0.5,CENTER_DUAL,369.5,49.5,1.0,,
08:45:27.421,14.4,MANUAL,0,0,0.0,0.0,0.0,0.5,0.5,CENTER_DUAL,417.5,97.5,1.0,,
08:45:28.429,13.8,MANUAL,0,0,0.0,0.0,0.0,0.5,0.5,CENTER_DUAL,434.3,114.3,1.0,,
08:45:29.484,14.7,MANUAL,0,0,0.0,0.0,0.0,0.5,0.5,CENTER_DUAL,326.6,6.6,1.0,,
08:45:30.511,14.4,MANUAL,0,0,0.0,0.0,0.0,0.5,0.5,CENTER_DUAL,353.2,33.2,1.0,,
08:45:31.564,14.5,MANUAL,0,0,0.0,0.0,0.0,0.5,0.5,CENTER_DUAL,322.0,2.0,1.0,,
08:45:32.596,14.0,MANUAL,0,0,0.0,0.0,0.0,0.5,0.5,CENTER_DUAL,330.0,10.0,1.0,,
08:45:33.634,14.7,MANUAL,0,0,0.0,0.0,0.0,0.5,0.5,CENTER_DUAL,402.8,82.8,1.0,,
08:45:34.669,14.5,MANUAL,0,0,0.0,0.0,0.0,0.5,0.5,CENTER_DUAL,366.3,46.3,1.0,,
08:45:35.723,14.3,MANUAL,0,0,0.0,0.0,0.0,0.5,0.5,CENTER_DUAL,366.2,46.2,1.0,,
08:45:36.761,14.4,MANUAL,0,0,0.0,0.0,0.0,0.5,0.5,RIGHT_LANE_ONLY,358.2,38.2,0.5,,
08:45:37.807,14.3,MANUAL,0,0,0.0,0.0,0.0,0.5,0.5,RIGHT_LANE_ONLY,332.1,12.1,0.5,,
08:45:38.846,14.8,MANUAL,0,0,0.0,0.0,0.0,0.5,0.5,RIGHT_LANE_ONLY,324.9,4.9,0.5,,
08:45:39.850,13.3,MANUAL,0,0,0.0,0.0,0.0,0.5,0.5,CENTER_DUAL,407.3,87.3,1.0,,
08:45:40.856,13.9,MANUAL,0,0,0.0,0.0,0.0,0.5,0.5,CENTER_DUAL,409.3,89.3,1.0,,
08:45:41.866,14.2,MANUAL,0,0,0.0,0.0,0.0,0.5,0.5,RIGHT_LANE_ONLY,422.4,102.4,0.5,,
08:45:42.895,15.0,MANUAL,0,0,0.0,0.0,0.0,0.5,0.5,CENTER_DUAL,410.4,90.4,1.0,,
08:45:43.948,14.3,MANUAL,0,0,0.0,0.0,0.0,0.5,0.5,CENTER_DUAL,412.5,92.5,1.0,,
08:45:45.000,14.1,MANUAL,0,0,0.0,0.0,0.0,0.5,0.5,CENTER_DUAL,424.3,104.3,1.0,,
08:45:46.051,14.4,MANUAL,0,0,0.0,0.0,0.0,0.5,0.5,CENTER_DUAL,394.7,74.7,1.0,,
