timestamp,loop_hz,mode,speed_pwm,steer_deg,yaw_deg,roll_deg,pitch_deg,car_x,car_y,lane_anchor,target_x,lateral_err_px,lane_confidence,active_sign,yolo_labels
17:24:45.795,0.6,MANUAL,0,0,0.0,0.0,0.0,0.5,0.5,,320.0,0.0,0.0,,
17:24:46.873,10.4,MANUAL,0,0,0.0,0.0,0.0,0.5,0.5,LEFT_LANE_ONLY,332.8,12.8,0.5,,
17:24:47.901,10.6,MANUAL,0,0,0.0,0.0,0.0,0.5,0.5,LEFT_LANE_ONLY,332.8,12.8,0.5,,
17:24:48.920,10.7,MANUAL,0,0,0.0,0.0,0.0,0.5,0.5,LEFT_LANE_ONLY,333.4,13.4,0.5,,car
17:24:49.923,10.7,MANUAL,0,0,0.0,0.0,0.0,0.5,0.5,LEFT_LANE_ONLY,333.4,13.4,0.5,,"car, stop-sign"
17:24:51.216,1.7,MANUAL,0,0,0.0,0.0,0.0,0.5,0.5,LEFT_LANE_ONLY,333.2,13.2,0.5,,"car, car"
17:24:52.212,8.0,MANUAL,0,0,0.0,0.0,0.0,0.5,0.5,LEFT_LANE_ONLY,333.2,13.2,0.5,,car
17:24:53.289,8.9,MANUAL,0,0,0.0,0.0,0.0,0.5,0.5,LEFT_LANE_ONLY,333.6,13.6,0.5,,
17:24:54.287,4.9,MANUAL,0,0,0.0,0.0,0.0,0.5,0.5,LEFT_LANE_ONLY,333.9,13.9,0.5,,roundabout-sign
17:24:55.309,8.8,MANUAL,0,0,0.0,0.0,0.0,0.5,0.5,LEFT_LANE_ONLY,334.0,14.0,0.5,,"pedestrian, roundabout-sign, car"
17:24:56.302,8.0,MANUAL,0,0,0.0,0.0,0.0,0.5,0.5,LEFT_LANE_ONLY,331.0,11.0,0.5,,
17:24:57.309,8.8,MANUAL,0,0,0.0,0.0,0.0,0.5,0.5,LEFT_LANE_ONLY,330.4,10.4,0.5,,
17:24:58.309,8.5,MANUAL,0,0,0.0,0.0,0.0,0.5,0.5,LEFT_LANE_ONLY,331.3,11.3,0.5,,
17:24:59.385,8.1,MANUAL,0,0,0.0,0.0,0.0,0.5,0.5,LEFT_LANE_ONLY,376.4,56.4,0.5,,car
17:25:00.395,8.2,MANUAL,0,0,0.0,0.0,0.0,0.5,0.5,LEFT_LANE_ONLY,357.5,37.5,0.5,,"car, roundabout-sign"
17:25:01.460,8.0,MANUAL,0,0,0.0,0.0,0.0,0.5,0.5,LEFT_LANE_ONLY,357.5,37.5,0.5,,
17:25:02.484,6.7,MANUAL,0,0,0.0,0.0,0.0,0.5,0.5,LEFT_LANE_ONLY,358.1,38.1,0.5,,car
17:25:03.563,8.1,MANUAL,0,0,0.0,0.0,0.0,0.5,0.5,LEFT_LANE_ONLY,358.3,38.3,0.5,,car
17:25:04.638,7.3,MANUAL,0,0,0.0,0.0,0.0,0.5,0.5,LEFT_LANE_ONLY,358.7,38.7,0.5,,car
17:25:05.630,7.5,MANUAL,0,0,0.0,0.0,0.0,0.5,0.5,LEFT_LANE_ONLY,359.1,39.1,0.5,,car
17:25:06.753,7.5,MANUAL,0,0,0.0,0.0,0.0,0.5,0.5,LEFT_LANE_ONLY,359.3,39.3,0.5,,car
17:25:07.804,8.1,MANUAL,0,0,0.0,0.0,0.0,0.5,0.5,LEFT_LANE_ONLY,359.6,39.6,0.5,,car
17:25:08.873,9.6,MANUAL,0,0,0.0,0.0,0.0,0.5,0.5,CENTER_DUAL,327.4,7.4,1.0,,
17:25:09.892,8.6,MANUAL,0,0,0.0,0.0,0.0,0.5,0.5,LEFT_LANE_ONLY,378.4,58.4,0.5,,car
17:25:10.978,9.3,MANUAL,0,0,0.0,0.0,0.0,0.5,0.5,LEFT_LANE_ONLY,372.1,52.1,0.5,,priority-sign
17:25:12.007,9.0,MANUAL,0,0,0.0,0.0,0.0,0.5,0.5,CENTER_DUAL,305.7,-14.3,1.0,,
17:25:13.106,9.3,MANUAL,0,0,0.0,0.0,0.0,0.5,0.5,CENTER_DUAL,370.9,50.9,1.0,,
17:25:14.110,8.1,MANUAL,0,0,0.0,0.0,0.0,0.5,0.5,CENTER_DUAL,381.7,61.7,1.0,,roundabout-sign
17:25:15.145,7.7,MANUAL,0,0,0.0,0.0,0.0,0.5,0.5,CENTER_DUAL,335.5,15.5,1.0,,
17:25:16.226,8.5,MANUAL,0,0,0.0,0.0,0.0,0.5,0.5,RIGHT_LANE_ONLY,396.2,76.2,0.5,,
17:25:17.275,8.6,MANUAL,0,0,0.0,0.0,0.0,0.5,0.5,LEFT_LANE_ONLY,286.7,-33.3,0.5,,
17:25:18.287,8.6,MANUAL,0,0,0.0,0.0,0.0,0.5,0.5,CENTER_DUAL,257.9,-62.1,1.0,,
17:25:19.349,8.1,MANUAL,0,0,0.0,0.0,0.0,0.5,0.5,CENTER_DUAL,338.1,18.1,1.0,,car
17:25:20.450,4.9,MANUAL,0,0,0.0,0.0,0.0,0.5,0.5,LEFT_LANE_ONLY,363.2,43.2,0.5,,"car, roundabout-sign"
17:25:21.521,6.9,MANUAL,0,0,0.0,0.0,0.0,0.5,0.5,CENTER_DUAL,373.9,53.9,1.0,,car
17:25:22.563,8.1,MANUAL,0,0,0.0,0.0,0.0,0.5,0.5,CENTER_DUAL,369.8,49.8,1.0,,"car, roundabout-sign"
17:25:23.627,8.3,MANUAL,0,0,0.0,0.0,0.0,0.5,0.5,CENTER_DUAL,367.1,47.1,1.0,,car
17:25:24.642,9.2,MANUAL,0,0,0.0,0.0,0.0,0.5,0.5,CENTER_DUAL,367.4,47.4,1.0,,car
17:25:25.680,7.8,MANUAL,0,0,0.0,0.0,0.0,0.5,0.5,LEFT_LANE_ONLY,373.6,53.6,0.5,,"car, stop-sign"
17:25:26.760,7.7,MANUAL,0,0,0.0,0.0,0.0,0.5,0.5,CENTER_DUAL,325.6,5.6,1.0,,car
17:25:27.870,6.8,MANUAL,0,0,0.0,0.0,0.0,0.5,0.5,CENTER_DUAL,306.6,-13.4,1.0,,car
17:25:28.925,8.2,MANUAL,0,0,0.0,0.0,0.0,0.5,0.5,CENTER_DUAL,301.0,-19.0,1.0,,car
17:25:29.915,8.4,MANUAL,0,0,0.0,0.0,0.0,0.5,0.5,CENTER_DUAL,296.0,-24.0,1.0,,car
17:25:30.949,8.6,MANUAL,0,0,0.0,0.0,0.0,0.5,0.5,LEFT_LANE_ONLY,302.9,-17.1,0.5,,car
17:25:32.038,8.9,MANUAL,0,0,0.0,0.0,0.0,0.5,0.5,CENTER_DUAL,304.7,-15.3,1.0,,car
17:25:33.086,8.4,MANUAL,0,0,0.0,0.0,0.0,0.5,0.5,CENTER_DUAL,300.8,-19.2,1.0,,"car, car"
17:25:34.083,8.5,MANUAL,0,0,0.0,0.0,0.0,0.5,0.5,CENTER_DUAL,287.2,-32.8,1.0,,car
17:25:35.116,9.1,MANUAL,0,0,0.0,0.0,0.0,0.5,0.5,CENTER_DUAL,283.4,-36.6,1.0,,
17:25:36.158,9.1,MANUAL,0,0,0.0,0.0,0.0,0.5,0.5,CENTER_DUAL,280.5,-39.5,1.0,,car
17:25:37.244,7.1,MANUAL,0,0,0.0,0.0,0.0,0.5,0.5,CENTER_DUAL,304.8,-15.2,1.0,,"roundabout-sign, roundabout-sign"
17:25:38.316,7.0,MANUAL,0,0,0.0,0.0,0.0,0.5,0.5,CENTER_DUAL,303.4,-16.6,1.0,,car
17:25:39.349,7.6,MANUAL,0,0,0.0,0.0,0.0,0.5,0.5,CENTER_DUAL,301.0,-19.0,1.0,,car
17:25:40.463,6.8,MANUAL,0,0,0.0,0.0,0.0,0.5,0.5,CENTER_DUAL,298.6,-21.4,1.0,,car
17:25:41.557,6.2,MANUAL,0,0,0.0,0.0,0.0,0.5,0.5,CENTER_DUAL,299.3,-20.7,1.0,,"car, stop-sign"
17:25:42.614,7.4,MANUAL,0,0,0.0,0.0,0.0,0.5,0.5,CENTER_DUAL,300.9,-19.1,1.0,,"car, stop-sign"
17:25:43.723,6.6,MANUAL,0,0,0.0,0.0,0.0,0.5,0.5,CENTER_DUAL,302.1,-17.9,1.0,,"car, stop-sign"
17:25:44.810,7.6,MANUAL,0,0,0.0,0.0,0.0,0.5,0.5,CENTER_DUAL,302.9,-17.1,1.0,,"car, stop-sign"
17:25:45.826,6.7,MANUAL,0,0,0.0,0.0,0.0,0.5,0.5,CENTER_DUAL,291.1,-28.9,1.0,,car
17:25:46.909,7.4,MANUAL,0,0,0.0,0.0,0.0,0.5,0.5,CENTER_DUAL,211.7,-108.3,1.0,,car
17:25:47.971,7.7,MANUAL,0,0,0.0,0.0,0.0,0.5,0.5,CENTER_DUAL,187.0,-133.0,1.0,,car
17:25:49.051,7.5,MANUAL,0,0,0.0,0.0,0.0,0.5,0.5,CENTER_DUAL,186.6,-133.4,1.0,,car
17:25:50.082,4.7,MANUAL,0,0,0.0,0.0,0.0,0.5,0.5,CENTER_DUAL,293.0,-27.0,1.0,,car
17:25:51.112,6.2,MANUAL,0,0,0.0,0.0,0.0,0.5,0.5,CENTER_DUAL,295.8,-24.2,1.0,,car
17:25:52.221,4.6,MANUAL,0,0,0.0,0.0,0.0,0.5,0.5,CENTER_DUAL,298.3,-21.7,1.0,,car
17:25:53.439,4.0,MANUAL,0,0,0.0,0.0,0.0,0.5,0.5,CENTER_DUAL,300.8,-19.2,1.0,,car
17:25:54.427,5.7,MANUAL,0,0,0.0,0.0,0.0,0.5,0.5,CENTER_DUAL,301.2,-18.8,1.0,,car
17:25:55.547,4.7,MANUAL,0,0,0.0,0.0,0.0,0.5,0.5,CENTER_DUAL,293.5,-26.5,1.0,,"car, crosswalk-sign"
17:25:56.553,5.5,MANUAL,0,0,0.0,0.0,0.0,0.5,0.5,CENTER_DUAL,296.4,-23.6,1.0,,car
17:25:57.680,5.2,MANUAL,0,0,0.0,0.0,0.0,0.5,0.5,CENTER_DUAL,297.4,-22.6,1.0,,car
17:25:58.830,6.3,MANUAL,0,0,0.0,0.0,0.0,0.5,0.5,CENTER_DUAL,296.9,-23.1,1.0,,
17:25:59.835,4.0,MANUAL,0,0,0.0,0.0,0.0,0.5,0.5,CENTER_DUAL,298.0,-22.0,1.0,,"pedestrian, stop-sign"
17:26:01.001,3.0,MANUAL,0,0,0.0,0.0,0.0,0.5,0.5,CENTER_DUAL,295.7,-24.3,1.0,,"pedestrian, car"
17:26:02.025,5.6,MANUAL,0,0,0.0,0.0,0.0,0.5,0.5,LEFT_LANE_ONLY,294.3,-25.7,0.5,,"car, pedestrian, stop-sign"
17:26:03.130,7.0,MANUAL,0,0,0.0,0.0,0.0,0.5,0.5,LEFT_LANE_ONLY,292.8,-27.2,0.5,,"car, pedestrian"
17:26:04.216,6.8,MANUAL,0,0,0.0,0.0,0.0,0.5,0.5,LEFT_LANE_ONLY,291.9,-28.1,0.5,,"car, pedestrian"
17:26:05.251,8.4,MANUAL,0,0,0.0,0.0,0.0,0.5,0.5,LEFT_LANE_ONLY,291.1,-28.9,0.5,,"car, pedestrian"
17:26:06.291,8.3,MANUAL,0,0,0.0,0.0,0.0,0.5,0.5,LEFT_LANE_ONLY,290.4,-29.6,0.5,,"pedestrian, car"
17:26:07.329,8.6,MANUAL,0,0,0.0,0.0,0.0,0.5,0.5,LEFT_LANE_ONLY,289.7,-30.3,0.5,,"car, pedestrian, pedestrian"
17:26:08.377,8.6,MANUAL,0,0,0.0,0.0,0.0,0.5,0.5,LEFT_LANE_ONLY,289.0,-31.0,0.5,,car
17:26:09.367,9.2,MANUAL,0,0,0.0,0.0,0.0,0.5,0.5,LEFT_LANE_ONLY,288.8,-31.2,0.5,,"car, stop-sign"
17:26:10.459,9.0,MANUAL,0,0,0.0,0.0,0.0,0.5,0.5,LEFT_LANE_ONLY,337.1,17.1,0.5,,"car, roundabout-sign"
17:26:11.466,8.3,MANUAL,0,0,0.0,0.0,0.0,0.5,0.5,LEFT_LANE_ONLY,336.0,16.0,0.5,,car
17:26:12.477,8.5,MANUAL,0,0,0.0,0.0,0.0,0.5,0.5,LEFT_LANE_ONLY,335.2,15.2,0.5,,pedestrian
17:26:13.521,8.6,MANUAL,0,0,0.0,0.0,0.0,0.5,0.5,LEFT_LANE_ONLY,334.5,14.5,0.5,,crosswalk-sign
17:26:14.534,8.5,MANUAL,0,0,0.0,0.0,0.0,0.5,0.5,LEFT_LANE_ONLY,334.0,14.0,0.5,,
17:26:15.625,8.5,MANUAL,0,0,0.0,0.0,0.0,0.5,0.5,LEFT_LANE_ONLY,333.8,13.8,0.5,,car
17:26:16.679,4.1,MANUAL,0,0,0.0,0.0,0.0,0.5,0.5,LEFT_LANE_ONLY,333.7,13.7,0.5,,car
17:26:17.776,8.8,MANUAL,0,0,0.0,0.0,0.0,0.5,0.5,LEFT_LANE_ONLY,333.7,13.7,0.5,,car
17:26:18.876,7.0,MANUAL,0,0,0.0,0.0,0.0,0.5,0.5,LEFT_LANE_ONLY,333.6,13.6,0.5,,car
17:26:19.865,5.7,MANUAL,0,0,0.0,0.0,0.0,0.5,0.5,LEFT_LANE_ONLY,333.5,13.5,0.5,,"car, car"
17:26:20.989,7.2,MANUAL,0,0,0.0,0.0,0.0,0.5,0.5,LEFT_LANE_ONLY,332.6,12.6,0.5,,"car, pedestrian"
17:26:22.095,6.4,MANUAL,0,0,0.0,0.0,0.0,0.5,0.5,LEFT_LANE_ONLY,332.1,12.1,0.5,,"car, pedestrian"
17:26:23.133,8.5,MANUAL,0,0,0.0,0.0,0.0,0.5,0.5,LEFT_LANE_ONLY,332.0,12.0,0.5,,"car, stop-sign, pedestrian, priority-sign"
17:26:24.230,6.9,MANUAL,0,0,0.0,0.0,0.0,0.5,0.5,LEFT_LANE_ONLY,331.9,11.9,0.5,,car
17:26:25.279,8.7,MANUAL,0,0,0.0,0.0,0.0,0.5,0.5,LEFT_LANE_ONLY,331.9,11.9,0.5,,"car, stop-sign"
17:26:26.376,6.8,MANUAL,0,0,0.0,0.0,0.0,0.5,0.5,LEFT_LANE_ONLY,331.9,11.9,0.5,,car
17:26:27.455,9.0,MANUAL,0,0,0.0,0.0,0.0,0.5,0.5,LEFT_LANE_ONLY,332.4,12.4,0.5,,car
17:26:28.531,8.4,MANUAL,0,0,0.0,0.0,0.0,0.5,0.5,LEFT_LANE_ONLY,332.3,12.3,0.5,,"car, stop-sign"
17:26:29.616,9.4,MANUAL,0,0,0.0,0.0,0.0,0.5,0.5,LEFT_LANE_ONLY,332.4,12.4,0.5,,
17:26:30.728,8.3,MANUAL,0,0,0.0,0.0,0.0,0.5,0.5,LEFT_LANE_ONLY,332.7,12.7,0.5,,
17:26:31.795,9.1,MANUAL,0,0,0.0,0.0,0.0,0.5,0.5,LEFT_LANE_ONLY,332.8,12.8,0.5,,
17:26:32.807,7.7,MANUAL,0,0,0.0,0.0,0.0,0.5,0.5,LEFT_LANE_ONLY,332.6,12.6,0.5,,stop-sign
17:26:33.970,4.5,MANUAL,0,0,0.0,0.0,0.0,0.5,0.5,LEFT_LANE_ONLY,332.6,12.6,0.5,,stop-sign
17:26:34.958,7.4,MANUAL,0,0,0.0,0.0,0.0,0.5,0.5,LEFT_LANE_ONLY,332.4,12.4,0.5,,"stop-sign, car"
17:26:36.003,8.4,MANUAL,0,0,0.0,0.0,0.0,0.5,0.5,LEFT_LANE_ONLY,332.4,12.4,0.5,,"car, pedestrian"
17:26:37.079,6.4,MANUAL,0,0,0.0,0.0,0.0,0.5,0.5,LEFT_LANE_ONLY,332.5,12.5,0.5,,"car, pedestrian"
17:26:38.127,8.2,MANUAL,0,0,0.0,0.0,0.0,0.5,0.5,LEFT_LANE_ONLY,332.3,12.3,0.5,,"car, stop-sign"
17:26:39.253,5.9,MANUAL,0,0,0.0,0.0,0.0,0.5,0.5,LEFT_LANE_ONLY,332.2,12.2,0.5,,car
17:26:40.399,4.9,MANUAL,0,0,0.0,0.0,0.0,0.5,0.5,LEFT_LANE_ONLY,332.1,12.1,0.5,,"car, stop-sign"
17:26:41.510,4.5,MANUAL,0,0,0.0,0.0,0.0,0.5,0.5,LEFT_LANE_ONLY,332.2,12.2,0.5,,
17:26:42.563,6.3,MANUAL,0,0,0.0,0.0,0.0,0.5,0.5,LEFT_LANE_ONLY,332.4,12.4,0.5,,
17:26:43.620,8.1,MANUAL,0,0,0.0,0.0,0.0,0.5,0.5,LEFT_LANE_ONLY,332.5,12.5,0.5,,
17:26:44.628,5.8,MANUAL,0,0,0.0,0.0,0.0,0.5,0.5,LEFT_LANE_ONLY,333.0,13.0,0.5,,
17:26:45.660,7.7,MANUAL,0,0,0.0,0.0,0.0,0.5,0.5,LEFT_LANE_ONLY,338.7,18.7,0.5,,car
17:26:46.692,7.9,MANUAL,0,0,0.0,0.0,0.0,0.5,0.5,LEFT_LANE_ONLY,339.9,19.9,0.5,,car
17:26:47.841,5.6,MANUAL,0,0,0.0,0.0,0.0,0.5,0.5,LEFT_LANE_ONLY,340.8,20.8,0.5,,
17:26:48.857,4.8,MANUAL,0,0,0.0,0.0,0.0,0.5,0.5,LEFT_LANE_ONLY,341.4,21.4,0.5,,car
17:26:50.004,3.8,MANUAL,0,0,0.0,0.0,0.0,0.5,0.5,LEFT_LANE_ONLY,341.7,21.7,0.5,,car
17:26:51.157,5.5,MANUAL,0,0,0.0,0.0,0.0,0.5,0.5,LEFT_LANE_ONLY,341.0,21.0,0.5,,car
17:26:52.276,6.7,MANUAL,0,0,0.0,0.0,0.0,0.5,0.5,LEFT_LANE_ONLY,336.6,16.6,0.5,,stop-sign
17:26:53.282,7.9,MANUAL,0,0,0.0,0.0,0.0,0.5,0.5,LEFT_LANE_ONLY,336.0,16.0,0.5,,car
17:26:54.338,7.2,MANUAL,0,0,0.0,0.0,0.0,0.5,0.5,LEFT_LANE_ONLY,335.1,15.1,0.5,,"car, roundabout-sign"
17:26:55.412,7.8,MANUAL,0,0,0.0,0.0,0.0,0.5,0.5,LEFT_LANE_ONLY,334.1,14.1,0.5,,car
17:26:56.570,5.1,MANUAL,0,0,0.0,0.0,0.0,0.5,0.5,LEFT_LANE_ONLY,321.9,1.9,0.5,,car
17:26:57.663,8.0,MANUAL,0,0,0.0,0.0,0.0,0.5,0.5,LEFT_LANE_ONLY,336.9,16.9,0.5,,car
17:26:58.768,5.5,MANUAL,0,0,0.0,0.0,0.0,0.5,0.5,LEFT_LANE_ONLY,339.1,19.1,0.5,,car
17:26:59.886,6.8,MANUAL,0,0,0.0,0.0,0.0,0.5,0.5,LEFT_LANE_ONLY,334.2,14.2,0.5,,car
17:27:00.916,7.3,MANUAL,0,0,0.0,0.0,0.0,0.5,0.5,LEFT_LANE_ONLY,333.5,13.5,0.5,,car
17:27:01.911,8.0,MANUAL,0,0,0.0,0.0,0.0,0.5,0.5,LEFT_LANE_ONLY,333.3,13.3,0.5,,car
17:27:02.956,7.1,MANUAL,0,0,0.0,0.0,0.0,0.5,0.5,LEFT_LANE_ONLY,313.3,-6.7,0.5,,car
17:27:04.016,6.3,MANUAL,0,0,0.0,0.0,0.0,0.5,0.5,RIGHT_LANE_ONLY,194.9,-125.1,0.5,,"car, pedestrian, parking-sign, car"
17:27:05.105,7.6,MANUAL,0,0,0.0,0.0,0.0,0.5,0.5,RIGHT_LANE_ONLY,205.7,-114.3,0.5,,"car, car"
17:27:06.167,7.4,MANUAL,0,0,0.0,0.0,0.0,0.5,0.5,RIGHT_LANE_ONLY,228.0,-92.0,0.5,,"car, parking-sign, pedestrian, car"
17:27:07.175,8.8,MANUAL,0,0,0.0,0.0,0.0,0.5,0.5,RIGHT_LANE_ONLY,215.4,-104.6,0.5,,"car, traffic-light, roundabout-sign"
17:27:08.200,7.2,MANUAL,0,0,0.0,0.0,0.0,0.5,0.5,RIGHT_LANE_ONLY,238.7,-81.3,0.5,,"car, roundabout-sign, stop-sign, car"
17:27:09.262,7.3,MANUAL,0,0,0.0,0.0,0.0,0.5,0.5,RIGHT_LANE_ONLY,353.0,33.0,0.5,,roundabout-sign
17:27:10.276,6.7,MANUAL,0,0,0.0,0.0,0.0,0.5,0.5,RIGHT_LANE_ONLY,390.3,70.3,0.5,,parking-sign
17:27:11.348,8.6,MANUAL,0,0,0.0,0.0,0.0,0.5,0.5,RIGHT_LANE_ONLY,21.8,-298.2,0.5,,"car, roundabout-sign, roundabout-sign"
17:27:12.433,7.7,MANUAL,0,0,0.0,0.0,0.0,0.5,0.5,RIGHT_LANE_ONLY,318.3,-1.7,0.5,,"car, roundabout-sign, pedestrian"
17:27:13.487,7.1,MANUAL,0,0,0.0,0.0,0.0,0.5,0.5,CENTER_DUAL,318.3,-1.7,1.0,,"car, parking-sign"
17:27:14.476,7.2,MANUAL,0,0,0.0,0.0,0.0,0.5,0.5,CENTER_DUAL,338.6,18.6,1.0,,"car, traffic-light"
17:27:15.564,5.4,MANUAL,0,0,0.0,0.0,0.0,0.5,0.5,CENTER_DUAL,343.7,23.7,1.0,,car
17:27:16.562,5.9,MANUAL,0,0,0.0,0.0,0.0,0.5,0.5,CENTER_DUAL,344.7,24.7,1.0,,car
17:27:17.558,8.6,MANUAL,0,0,0.0,0.0,0.0,0.5,0.5,RIGHT_LANE_ONLY,348.3,28.3,0.5,,
17:27:18.597,3.7,MANUAL,0,0,0.0,0.0,0.0,0.5,0.5,CENTER_DUAL,348.3,28.3,1.0,,
17:27:19.616,7.2,MANUAL,0,0,0.0,0.0,0.0,0.5,0.5,CENTER_DUAL,344.4,24.4,1.0,,
17:27:20.653,7.7,MANUAL,0,0,0.0,0.0,0.0,0.5,0.5,CENTER_DUAL,344.4,24.4,1.0,,"car, car"
17:27:21.671,7.0,MANUAL,0,0,0.0,0.0,0.0,0.5,0.5,CENTER_DUAL,344.4,24.4,1.0,,
17:27:22.693,7.6,MANUAL,0,0,0.0,0.0,0.0,0.5,0.5,CENTER_DUAL,344.3,24.3,1.0,,
17:27:23.765,7.3,MANUAL,0,0,0.0,0.0,0.0,0.5,0.5,CENTER_DUAL,344.3,24.3,1.0,,
17:27:24.778,6.1,MANUAL,0,0,0.0,0.0,0.0,0.5,0.5,CENTER_DUAL,344.3,24.3,1.0,,car
17:27:25.950,3.9,MANUAL,0,0,0.0,0.0,0.0,0.5,0.5,CENTER_DUAL,344.6,24.6,1.0,,car
17:27:27.068,6.0,MANUAL,0,0,0.0,0.0,0.0,0.5,0.5,CENTER_DUAL,349.5,29.5,1.0,,
17:27:28.080,8.1,MANUAL,0,0,0.0,0.0,0.0,0.5,0.5,CENTER_DUAL,348.3,28.3,1.0,,car
17:27:29.184,4.1,MANUAL,0,0,0.0,0.0,0.0,0.5,0.5,CENTER_DUAL,346.1,26.1,1.0,,
17:27:30.221,6.8,MANUAL,0,0,0.0,0.0,0.0,0.5,0.5,CENTER_DUAL,346.0,26.0,1.0,,
17:27:31.262,7.5,MANUAL,0,0,0.0,0.0,0.0,0.5,0.5,CENTER_DUAL,345.7,25.7,1.0,,pedestrian
17:27:32.462,4.3,MANUAL,0,0,0.0,0.0,0.0,0.5,0.5,CENTER_DUAL,345.7,25.7,1.0,,
17:27:33.565,6.1,MANUAL,0,0,0.0,0.0,0.0,0.5,0.5,CENTER_DUAL,346.4,26.4,1.0,,parking-sign
17:27:34.592,6.6,MANUAL,0,0,0.0,0.0,0.0,0.5,0.5,CENTER_DUAL,347.0,27.0,1.0,,parking-sign
17:27:35.637,4.5,MANUAL,0,0,0.0,0.0,0.0,0.5,0.5,CENTER_DUAL,347.2,27.2,1.0,,
17:27:36.634,7.1,MANUAL,0,0,0.0,0.0,0.0,0.5,0.5,CENTER_DUAL,347.6,27.6,1.0,,parking-sign
17:27:37.663,6.9,MANUAL,0,0,0.0,0.0,0.0,0.5,0.5,RIGHT_LANE_ONLY,399.3,79.3,0.5,,"parking-sign, car"
17:27:38.743,6.5,MANUAL,0,0,0.0,0.0,0.0,0.5,0.5,CENTER_DUAL,350.1,30.1,1.0,,car
17:27:39.827,6.8,MANUAL,0,0,0.0,0.0,0.0,0.5,0.5,CENTER_DUAL,349.3,29.3,1.0,,"car, traffic-light, pedestrian"
17:27:40.870,7.6,MANUAL,0,0,0.0,0.0,0.0,0.5,0.5,CENTER_DUAL,348.7,28.7,1.0,,car
17:27:41.909,7.2,MANUAL,0,0,0.0,0.0,0.0,0.5,0.5,RIGHT_LANE_ONLY,346.7,26.7,0.5,,
17:27:42.918,6.7,MANUAL,0,0,0.0,0.0,0.0,0.5,0.5,RIGHT_LANE_ONLY,323.1,3.1,0.5,,car
17:27:43.955,6.7,MANUAL,0,0,0.0,0.0,0.0,0.5,0.5,RIGHT_LANE_ONLY,320.3,0.3,0.5,,"parking-sign, car, car"
17:27:45.068,6.4,MANUAL,0,0,0.0,0.0,0.0,0.5,0.5,CENTER_DUAL,280.7,-39.3,1.0,,"car, parking-sign"
17:27:46.133,7.7,MANUAL,0,0,0.0,0.0,0.0,0.5,0.5,CENTER_DUAL,272.1,-47.9,1.0,,parking-sign
17:27:47.130,6.4,MANUAL,0,0,0.0,0.0,0.0,0.5,0.5,RIGHT_LANE_ONLY,303.8,-16.2,0.5,,"car, parking-sign, oneway-sign"
17:27:48.148,5.9,MANUAL,0,0,0.0,0.0,0.0,0.5,0.5,RIGHT_LANE_ONLY,309.1,-10.9,0.5,,"car, parking-sign, oneway-sign"
17:27:49.166,6.0,MANUAL,0,0,0.0,0.0,0.0,0.5,0.5,RIGHT_LANE_ONLY,371.0,51.0,0.5,,"parking-sign, car"
17:27:50.276,6.2,MANUAL,0,0,0.0,0.0,0.0,0.5,0.5,RIGHT_LANE_ONLY,305.5,-14.5,0.5,,parking-sign
17:27:51.427,5.8,MANUAL,0,0,0.0,0.0,0.0,0.5,0.5,CENTER_DUAL,284.3,-35.7,1.0,,"car, parking-sign"
17:27:52.507,5.8,MANUAL,0,0,0.0,0.0,0.0,0.5,0.5,CENTER_DUAL,267.3,-52.7,1.0,,"car, parking-sign"
17:27:53.634,6.4,MANUAL,0,0,0.0,0.0,0.0,0.5,0.5,RIGHT_LANE_ONLY,305.6,-14.4,0.5,,"car, parking-sign"
17:27:54.672,4.5,MANUAL,0,0,0.0,0.0,0.0,0.5,0.5,RIGHT_LANE_ONLY,314.1,-5.9,0.5,,"car, pedestrian"
17:27:55.739,4.8,MANUAL,0,0,0.0,0.0,0.0,0.5,0.5,RIGHT_LANE_ONLY,315.0,-5.0,0.5,,
17:27:56.892,6.3,MANUAL,0,0,0.0,0.0,0.0,0.5,0.5,RIGHT_LANE_ONLY,318.8,-1.2,0.5,,
17:27:57.929,7.2,MANUAL,0,0,0.0,0.0,0.0,0.5,0.5,CENTER_DUAL,362.6,42.6,1.0,,stop-sign
17:27:58.998,6.5,MANUAL,0,0,0.0,0.0,0.0,0.5,0.5,CENTER_DUAL,380.8,60.8,1.0,,
17:28:00.050,4.9,MANUAL,0,0,0.0,0.0,0.0,0.5,0.5,CENTER_DUAL,365.7,45.7,1.0,,car
17:28:01.132,6.7,MANUAL,0,0,0.0,0.0,0.0,0.5,0.5,CENTER_DUAL,364.9,44.9,1.0,,
17:28:02.212,8.4,MANUAL,0,0,0.0,0.0,0.0,0.5,0.5,CENTER_DUAL,364.2,44.2,1.0,,
17:28:03.282,5.0,MANUAL,0,0,0.0,0.0,0.0,0.5,0.5,CENTER_DUAL,343.3,23.3,1.0,,
17:28:04.289,7.5,MANUAL,0,0,0.0,0.0,0.0,0.5,0.5,CENTER_DUAL,353.8,33.8,1.0,,
17:28:05.395,5.0,MANUAL,0,0,0.0,0.0,0.0,0.5,0.5,CENTER_DUAL,358.6,38.6,1.0,,
17:28:06.458,4.1,MANUAL,0,0,0.0,0.0,0.0,0.5,0.5,CENTER_DUAL,359.3,39.3,1.0,,roundabout-sign
17:28:07.652,4.4,MANUAL,0,0,0.0,0.0,0.0,0.5,0.5,CENTER_DUAL,359.8,39.8,1.0,,"roundabout-sign, parking-sign"
17:28:08.722,4.4,MANUAL,0,0,0.0,0.0,0.0,0.5,0.5,CENTER_DUAL,360.2,40.2,1.0,,"roundabout-sign, parking-sign"
17:28:09.792,6.5,MANUAL,0,0,0.0,0.0,0.0,0.5,0.5,CENTER_DUAL,360.5,40.5,1.0,,"parking-sign, traffic-light"
17:28:10.855,7.4,MANUAL,0,0,0.0,0.0,0.0,0.5,0.5,CENTER_DUAL,361.1,41.1,1.0,,car
17:28:11.887,7.8,MANUAL,0,0,0.0,0.0,0.0,0.5,0.5,CENTER_DUAL,361.5,41.5,1.0,,
17:28:13.032,5.9,MANUAL,0,0,0.0,0.0,0.0,0.5,0.5,CENTER_DUAL,361.9,41.9,1.0,,
17:28:14.118,6.5,MANUAL,0,0,0.0,0.0,0.0,0.5,0.5,CENTER_DUAL,362.1,42.1,1.0,,
17:28:15.127,6.8,MANUAL,0,0,0.0,0.0,0.0,0.5,0.5,CENTER_DUAL,362.2,42.2,1.0,,car
17:28:16.185,8.5,MANUAL,0,0,0.0,0.0,0.0,0.5,0.5,CENTER_DUAL,362.3,42.3,1.0,,car
17:28:17.269,8.4,MANUAL,0,0,0.0,0.0,0.0,0.5,0.5,CENTER_DUAL,362.4,42.4,1.0,,car
17:28:18.309,8.5,MANUAL,0,0,0.0,0.0,0.0,0.5,0.5,CENTER_DUAL,362.4,42.4,1.0,,
17:28:19.347,8.7,MANUAL,0,0,0.0,0.0,0.0,0.5,0.5,CENTER_DUAL,362.4,42.4,1.0,,car
17:28:20.342,8.4,MANUAL,0,0,0.0,0.0,0.0,0.5,0.5,CENTER_DUAL,362.4,42.4,1.0,,car
17:28:21.426,8.3,MANUAL,0,0,0.0,0.0,0.0,0.5,0.5,CENTER_DUAL,361.9,41.9,1.0,,car
17:28:22.470,9.3,MANUAL,0,0,0.0,0.0,0.0,0.5,0.5,CENTER_DUAL,321.0,1.0,1.0,,"car, parking-sign"
17:28:23.586,7.8,MANUAL,0,0,0.0,0.0,0.0,0.5,0.5,CENTER_DUAL,364.8,44.8,1.0,,car
17:28:24.641,9.3,MANUAL,0,0,0.0,0.0,0.0,0.5,0.5,CENTER_DUAL,391.0,71.0,1.0,,"car, car"
17:28:25.691,6.7,MANUAL,0,0,0.0,0.0,0.0,0.5,0.5,CENTER_DUAL,412.3,92.3,1.0,,car
17:28:26.680,8.1,MANUAL,0,0,0.0,0.0,0.0,0.5,0.5,CENTER_DUAL,415.6,95.6,1.0,,car
17:28:27.798,7.9,MANUAL,0,0,0.0,0.0,0.0,0.5,0.5,CENTER_DUAL,418.7,98.7,1.0,,car
17:28:28.907,6.5,MANUAL,0,0,0.0,0.0,0.0,0.5,0.5,CENTER_DUAL,420.3,100.3,1.0,,car
17:28:29.995,7.6,MANUAL,0,0,0.0,0.0,0.0,0.5,0.5,CENTER_DUAL,385.4,65.4,1.0,,car
17:28:31.088,6.9,MANUAL,0,0,0.0,0.0,0.0,0.5,0.5,CENTER_DUAL,368.7,48.7,1.0,,"car, parking-sign"
17:28:32.144,8.1,MANUAL,0,0,0.0,0.0,0.0,0.5,0.5,CENTER_DUAL,367.4,47.4,1.0,,car
17:28:33.209,8.4,MANUAL,0,0,0.0,0.0,0.0,0.5,0.5,CENTER_DUAL,366.1,46.1,1.0,,car
17:28:34.320,6.2,MANUAL,0,0,0.0,0.0,0.0,0.5,0.5,CENTER_DUAL,363.5,43.5,1.0,,pedestrian
17:28:35.465,6.3,MANUAL,0,0,0.0,0.0,0.0,0.5,0.5,CENTER_DUAL,362.4,42.4,1.0,,"parking-sign, pedestrian, traffic-light"
17:28:36.496,6.4,MANUAL,0,0,0.0,0.0,0.0,0.5,0.5,CENTER_DUAL,361.8,41.8,1.0,,"car, pedestrian"
17:28:37.566,7.5,MANUAL,0,0,0.0,0.0,0.0,0.5,0.5,CENTER_DUAL,360.8,40.8,1.0,,"pedestrian, car, pedestrian"
17:28:38.704,7.1,MANUAL,0,0,0.0,0.0,0.0,0.5,0.5,CENTER_DUAL,360.1,40.1,1.0,,"parking-sign, car"
17:28:39.722,7.7,MANUAL,0,0,0.0,0.0,0.0,0.5,0.5,CENTER_DUAL,359.2,39.2,1.0,,parking-sign
17:28:40.709,7.2,MANUAL,0,0,0.0,0.0,0.0,0.5,0.5,CENTER_DUAL,358.6,38.6,1.0,,"parking-sign, car"
17:28:41.852,6.8,MANUAL,0,0,0.0,0.0,0.0,0.5,0.5,CENTER_DUAL,358.1,38.1,1.0,,"parking-sign, car"
17:28:42.959,7.7,MANUAL,0,0,0.0,0.0,0.0,0.5,0.5,CENTER_DUAL,357.7,37.7,1.0,,parking-sign
17:28:43.987,5.6,MANUAL,0,0,0.0,0.0,0.0,0.5,0.5,CENTER_DUAL,357.5,37.5,1.0,,parking-sign
17:28:45.016,8.4,MANUAL,0,0,0.0,0.0,0.0,0.5,0.5,CENTER_DUAL,357.2,37.2,1.0,,"parking-sign, car"
17:28:46.151,6.7,MANUAL,0,0,0.0,0.0,0.0,0.5,0.5,CENTER_DUAL,357.0,37.0,1.0,,"parking-sign, car"
17:28:47.230,9.0,MANUAL,0,0,0.0,0.0,0.0,0.5,0.5,CENTER_DUAL,356.9,36.9,1.0,,parking-sign
17:28:48.392,5.1,MANUAL,0,0,0.0,0.0,0.0,0.5,0.5,CENTER_DUAL,358.2,38.2,1.0,,"car, parking-sign, stop-sign"
17:28:49.394,8.7,MANUAL,0,0,0.0,0.0,0.0,0.5,0.5,CENTER_DUAL,358.4,38.4,1.0,,"car, parking-sign"
17:28:50.389,8.8,MANUAL,0,0,0.0,0.0,0.0,0.5,0.5,CENTER_DUAL,358.5,38.5,1.0,,"car, parking-sign"
17:28:51.417,4.8,MANUAL,0,0,0.0,0.0,0.0,0.5,0.5,CENTER_DUAL,358.7,38.7,1.0,,"car, parking-sign"
17:28:52.504,8.9,MANUAL,0,0,0.0,0.0,0.0,0.5,0.5,CENTER_DUAL,358.9,38.9,1.0,,"car, parking-sign"
17:28:53.547,7.9,MANUAL,0,0,0.0,0.0,0.0,0.5,0.5,CENTER_DUAL,359.0,39.0,1.0,,"car, parking-sign"
17:28:54.539,7.9,MANUAL,0,0,0.0,0.0,0.0,0.5,0.5,CENTER_DUAL,359.1,39.1,1.0,,"car, parking-sign"
17:28:55.597,7.6,MANUAL,0,0,0.0,0.0,0.0,0.5,0.5,CENTER_DUAL,359.2,39.2,1.0,,"car, parking-sign"
17:28:56.644,8.6,MANUAL,0,0,0.0,0.0,0.0,0.5,0.5,CENTER_DUAL,359.4,39.4,1.0,,car
17:28:57.664,9.0,MANUAL,0,0,0.0,0.0,0.0,0.5,0.5,CENTER_DUAL,359.6,39.6,1.0,,"car, parking-sign, car"
17:28:58.773,8.1,MANUAL,0,0,0.0,0.0,0.0,0.5,0.5,CENTER_DUAL,360.5,40.5,1.0,,"car, car"
17:28:59.842,9.2,MANUAL,0,0,0.0,0.0,0.0,0.5,0.5,CENTER_DUAL,361.4,41.4,1.0,,
17:29:00.878,9.4,MANUAL,0,0,0.0,0.0,0.0,0.5,0.5,CENTER_DUAL,361.6,41.6,1.0,,
17:29:01.910,8.9,MANUAL,0,0,0.0,0.0,0.0,0.5,0.5,CENTER_DUAL,361.6,41.6,1.0,,car
17:29:02.962,5.2,MANUAL,0,0,0.0,0.0,0.0,0.5,0.5,CENTER_DUAL,361.6,41.6,1.0,,car
17:29:04.042,7.8,MANUAL,0,0,0.0,0.0,0.0,0.5,0.5,CENTER_DUAL,361.5,41.5,1.0,,"car, parking-sign"
17:29:05.118,8.3,MANUAL,0,0,0.0,0.0,0.0,0.5,0.5,CENTER_DUAL,361.4,41.4,1.0,,
17:29:06.171,6.9,MANUAL,0,0,0.0,0.0,0.0,0.5,0.5,CENTER_DUAL,361.1,41.1,1.0,,
17:29:07.237,9.0,MANUAL,0,0,0.0,0.0,0.0,0.5,0.5,CENTER_DUAL,360.4,40.4,1.0,,
17:29:08.251,8.4,MANUAL,0,0,0.0,0.0,0.0,0.5,0.5,CENTER_DUAL,359.8,39.8,1.0,,
17:29:09.300,9.2,MANUAL,0,0,0.0,0.0,0.0,0.5,0.5,CENTER_DUAL,359.4,39.4,1.0,,car
17:29:10.356,8.6,MANUAL,0,0,0.0,0.0,0.0,0.5,0.5,CENTER_DUAL,359.0,39.0,1.0,,
17:29:11.569,4.5,MANUAL,0,0,0.0,0.0,0.0,0.5,0.5,CENTER_DUAL,358.8,38.8,1.0,,car
17:29:12.617,8.9,MANUAL,0,0,0.0,0.0,0.0,0.5,0.5,CENTER_DUAL,358.6,38.6,1.0,,
17:29:13.734,7.1,MANUAL,0,0,0.0,0.0,0.0,0.5,0.5,CENTER_DUAL,358.5,38.5,1.0,,
17:29:14.757,9.5,MANUAL,0,0,0.0,0.0,0.0,0.5,0.5,CENTER_DUAL,358.6,38.6,1.0,,
17:29:15.798,9.4,MANUAL,0,0,0.0,0.0,0.0,0.5,0.5,CENTER_DUAL,358.6,38.6,1.0,,
17:29:16.883,9.3,MANUAL,0,0,0.0,0.0,0.0,0.5,0.5,CENTER_DUAL,358.4,38.4,1.0,,
17:29:17.980,9.0,MANUAL,0,0,0.0,0.0,0.0,0.5,0.5,CENTER_DUAL,358.4,38.4,1.0,,
17:29:19.083,8.8,MANUAL,0,0,0.0,0.0,0.0,0.5,0.5,CENTER_DUAL,358.3,38.3,1.0,,
17:29:20.098,4.8,MANUAL,0,0,0.0,0.0,0.0,0.5,0.5,CENTER_DUAL,358.2,38.2,1.0,,
17:29:21.127,9.3,MANUAL,0,0,0.0,0.0,0.0,0.5,0.5,CENTER_DUAL,352.0,32.0,1.0,,car
17:29:22.136,8.8,MANUAL,0,0,0.0,0.0,0.0,0.5,0.5,LEFT_LANE_ONLY,289.6,-30.4,0.5,,
17:29:23.201,8.9,MANUAL,0,0,0.0,0.0,0.0,0.5,0.5,LEFT_LANE_ONLY,269.7,-50.3,0.5,,
17:29:24.196,9.3,MANUAL,0,0,0.0,0.0,0.0,0.5,0.5,LEFT_LANE_ONLY,247.4,-72.6,0.5,,car
17:29:25.229,9.1,MANUAL,0,0,0.0,0.0,0.0,0.5,0.5,CENTER_DUAL,317.6,-2.4,1.0,,car
17:29:26.289,9.3,MANUAL,0,0,0.0,0.0,0.0,0.5,0.5,CENTER_DUAL,336.9,16.9,1.0,,"car, roundabout-sign, noentry-sign"
17:29:27.370,8.5,MANUAL,0,0,0.0,0.0,0.0,0.5,0.5,CENTER_DUAL,348.5,28.5,1.0,,car
17:29:28.586,4.2,MANUAL,0,0,0.0,0.0,0.0,0.5,0.5,CENTER_DUAL,321.0,1.0,1.0,,"car, car, car"
17:29:29.625,9.4,MANUAL,0,0,0.0,0.0,0.0,0.5,0.5,CENTER_DUAL,329.6,9.6,1.0,,car
17:29:30.651,8.4,MANUAL,0,0,0.0,0.0,0.0,0.5,0.5,RIGHT_LANE_ONLY,384.5,64.5,0.5,,car
17:29:31.752,7.8,MANUAL,0,0,0.0,0.0,0.0,0.5,0.5,RIGHT_LANE_ONLY,399.3,79.3,0.5,,car
17:29:32.769,9.5,MANUAL,0,0,0.0,0.0,0.0,0.5,0.5,RIGHT_LANE_ONLY,408.7,88.7,0.5,,"car, car, parking-sign"
17:29:33.809,7.1,MANUAL,0,0,0.0,0.0,0.0,0.5,0.5,RIGHT_LANE_ONLY,404.1,84.1,0.5,,"car, car, roundabout-sign, parking-sign"
17:29:34.879,9.3,MANUAL,0,0,0.0,0.0,0.0,0.5,0.5,RIGHT_LANE_ONLY,405.4,85.4,0.5,,"parking-sign, car, car"
17:29:35.980,9.6,MANUAL,0,0,0.0,0.0,0.0,0.5,0.5,RIGHT_LANE_ONLY,441.8,121.8,0.5,,"parking-sign, car, car, car, car"
17:29:37.056,5.2,MANUAL,0,0,0.0,0.0,0.0,0.5,0.5,RIGHT_LANE_ONLY,441.0,121.0,0.5,,"car, car, car, car"
17:29:38.055,8.5,MANUAL,0,0,0.0,0.0,0.0,0.5,0.5,RIGHT_LANE_ONLY,393.6,73.6,0.5,,"car, parking-sign, car"
17:29:39.051,8.9,MANUAL,0,0,0.0,0.0,0.0,0.5,0.5,CENTER_DUAL,344.2,24.2,1.0,,roundabout-sign
17:29:40.129,9.5,MANUAL,0,0,0.0,0.0,0.0,0.5,0.5,CENTER_DUAL,357.8,37.8,1.0,,
17:29:41.177,9.6,MANUAL,0,0,0.0,0.0,0.0,0.5,0.5,RIGHT_LANE_ONLY,390.1,70.1,0.5,,
17:29:42.220,9.6,MANUAL,0,0,0.0,0.0,0.0,0.5,0.5,RIGHT_LANE_ONLY,376.3,56.3,0.5,,
17:29:43.244,8.6,MANUAL,0,0,0.0,0.0,0.0,0.5,0.5,RIGHT_LANE_ONLY,391.7,71.7,0.5,,
17:29:44.284,9.4,MANUAL,0,0,0.0,0.0,0.0,0.5,0.5,RIGHT_LANE_ONLY,401.8,81.8,0.5,,
17:29:45.373,8.6,MANUAL,0,0,0.0,0.0,0.0,0.5,0.5,RIGHT_LANE_ONLY,410.4,90.4,0.5,,
17:29:46.364,8.5,MANUAL,0,0,0.0,0.0,0.0,0.5,0.5,RIGHT_LANE_ONLY,411.6,91.6,0.5,,
17:29:47.420,8.0,MANUAL,0,0,0.0,0.0,0.0,0.5,0.5,RIGHT_LANE_ONLY,412.3,92.3,0.5,,
17:29:48.460,5.1,MANUAL,0,0,0.0,0.0,0.0,0.5,0.5,RIGHT_LANE_ONLY,412.9,92.9,0.5,,
17:29:49.602,6.9,MANUAL,0,0,0.0,0.0,0.0,0.5,0.5,RIGHT_LANE_ONLY,413.2,93.2,0.5,,
17:29:50.614,8.1,MANUAL,0,0,0.0,0.0,0.0,0.5,0.5,RIGHT_LANE_ONLY,413.1,93.1,0.5,,
17:29:51.630,9.3,MANUAL,0,0,0.0,0.0,0.0,0.5,0.5,RIGHT_LANE_ONLY,413.0,93.0,0.5,,
17:29:52.653,7.2,MANUAL,0,0,0.0,0.0,0.0,0.5,0.5,RIGHT_LANE_ONLY,413.0,93.0,0.5,,
17:29:53.704,8.8,MANUAL,0,0,0.0,0.0,0.0,0.5,0.5,RIGHT_LANE_ONLY,412.8,92.8,0.5,,
17:29:54.769,7.9,MANUAL,0,0,0.0,0.0,0.0,0.5,0.5,RIGHT_LANE_ONLY,412.8,92.8,0.5,,
17:29:55.838,8.8,MANUAL,0,0,0.0,0.0,0.0,0.5,0.5,RIGHT_LANE_ONLY,412.4,92.4,0.5,,
17:29:56.843,7.9,MANUAL,0,0,0.0,0.0,0.0,0.5,0.5,RIGHT_LANE_ONLY,411.7,91.7,0.5,,
17:29:57.846,9.2,MANUAL,0,0,0.0,0.0,0.0,0.5,0.5,RIGHT_LANE_ONLY,411.6,91.6,0.5,,
17:29:58.934,7.0,MANUAL,0,0,0.0,0.0,0.0,0.5,0.5,RIGHT_LANE_ONLY,411.0,91.0,0.5,,
17:30:00.044,5.1,MANUAL,0,0,0.0,0.0,0.0,0.5,0.5,RIGHT_LANE_ONLY,410.9,90.9,0.5,,
17:30:01.081,9.2,MANUAL,0,0,0.0,0.0,0.0,0.5,0.5,RIGHT_LANE_ONLY,410.5,90.5,0.5,,
17:30:02.096,8.7,MANUAL,0,0,0.0,0.0,0.0,0.5,0.5,RIGHT_LANE_ONLY,410.9,90.9,0.5,,
17:30:03.085,9.7,MANUAL,0,0,0.0,0.0,0.0,0.5,0.5,RIGHT_LANE_ONLY,410.8,90.8,0.5,,
17:30:04.120,8.3,MANUAL,0,0,0.0,0.0,0.0,0.5,0.5,RIGHT_LANE_ONLY,410.7,90.7,0.5,,
17:30:05.164,9.1,MANUAL,0,0,0.0,0.0,0.0,0.5,0.5,RIGHT_LANE_ONLY,410.8,90.8,0.5,,
17:30:06.245,9.4,MANUAL,0,0,0.0,0.0,0.0,0.5,0.5,RIGHT_LANE_ONLY,411.2,91.2,0.5,,
17:30:07.314,9.4,MANUAL,0,0,0.0,0.0,0.0,0.5,0.5,RIGHT_LANE_ONLY,411.6,91.6,0.5,,
17:30:08.383,5.2,MANUAL,0,0,0.0,0.0,0.0,0.5,0.5,RIGHT_LANE_ONLY,412.2,92.2,0.5,,
17:30:09.472,8.8,MANUAL,0,0,0.0,0.0,0.0,0.5,0.5,RIGHT_LANE_ONLY,412.5,92.5,0.5,,
17:30:10.466,9.4,MANUAL,0,0,0.0,0.0,0.0,0.5,0.5,RIGHT_LANE_ONLY,412.6,92.6,0.5,,
17:30:11.478,9.2,MANUAL,0,0,0.0,0.0,0.0,0.5,0.5,RIGHT_LANE_ONLY,412.5,92.5,0.5,,
17:30:12.555,9.5,MANUAL,0,0,0.0,0.0,0.0,0.5,0.5,RIGHT_LANE_ONLY,412.7,92.7,0.5,,
17:30:13.556,9.8,MANUAL,0,0,0.0,0.0,0.0,0.5,0.5,RIGHT_LANE_ONLY,412.9,92.9,0.5,,
17:30:14.654,8.9,MANUAL,0,0,0.0,0.0,0.0,0.5,0.5,RIGHT_LANE_ONLY,412.9,92.9,0.5,,
17:30:15.732,9.9,MANUAL,0,0,0.0,0.0,0.0,0.5,0.5,RIGHT_LANE_ONLY,412.9,92.9,0.5,,
17:30:16.785,9.8,MANUAL,0,0,0.0,0.0,0.0,0.5,0.5,RIGHT_LANE_ONLY,413.3,93.3,0.5,,
17:30:17.849,8.7,MANUAL,0,0,0.0,0.0,0.0,0.5,0.5,RIGHT_LANE_ONLY,413.3,93.3,0.5,,
17:30:18.976,6.7,MANUAL,0,0,0.0,0.0,0.0,0.5,0.5,RIGHT_LANE_ONLY,413.4,93.4,0.5,,
17:30:20.048,8.1,MANUAL,0,0,0.0,0.0,0.0,0.5,0.5,RIGHT_LANE_ONLY,413.7,93.7,0.5,,
17:30:21.116,7.2,MANUAL,0,0,0.0,0.0,0.0,0.5,0.5,RIGHT_LANE_ONLY,413.6,93.6,0.5,,
17:30:22.144,9.1,MANUAL,0,0,0.0,0.0,0.0,0.5,0.5,RIGHT_LANE_ONLY,413.6,93.6,0.5,,
17:30:23.143,8.5,MANUAL,0,0,0.0,0.0,0.0,0.5,0.5,RIGHT_LANE_ONLY,413.5,93.5,0.5,,
17:30:24.163,8.8,MANUAL,0,0,0.0,0.0,0.0,0.5,0.5,RIGHT_LANE_ONLY,413.6,93.6,0.5,,
17:30:25.205,4.6,MANUAL,0,0,0.0,0.0,0.0,0.5,0.5,RIGHT_LANE_ONLY,413.5,93.5,0.5,,
17:30:26.297,8.7,MANUAL,0,0,0.0,0.0,0.0,0.5,0.5,RIGHT_LANE_ONLY,413.7,93.7,0.5,,
17:30:27.344,9.1,MANUAL,0,0,0.0,0.0,0.0,0.5,0.5,RIGHT_LANE_ONLY,413.8,93.8,0.5,,
17:30:28.428,9.0,MANUAL,0,0,0.0,0.0,0.0,0.5,0.5,RIGHT_LANE_ONLY,413.9,93.9,0.5,,
17:30:29.518,9.3,MANUAL,0,0,0.0,0.0,0.0,0.5,0.5,RIGHT_LANE_ONLY,414.0,94.0,0.5,,
17:30:30.684,5.1,MANUAL,0,0,0.0,0.0,0.0,0.5,0.5,RIGHT_LANE_ONLY,414.1,94.1,0.5,,
17:30:31.746,8.9,MANUAL,0,0,0.0,0.0,0.0,0.5,0.5,RIGHT_LANE_ONLY,414.0,94.0,0.5,,
17:30:32.770,8.8,MANUAL,0,0,0.0,0.0,0.0,0.5,0.5,RIGHT_LANE_ONLY,414.0,94.0,0.5,,
17:30:33.803,7.8,MANUAL,0,0,0.0,0.0,0.0,0.5,0.5,RIGHT_LANE_ONLY,414.0,94.0,0.5,,
17:30:34.837,9.0,MANUAL,0,0,0.0,0.0,0.0,0.5,0.5,RIGHT_LANE_ONLY,413.9,93.9,0.5,,
17:30:35.859,8.7,MANUAL,0,0,0.0,0.0,0.0,0.5,0.5,RIGHT_LANE_ONLY,413.9,93.9,0.5,,
17:30:36.937,8.8,MANUAL,0,0,0.0,0.0,0.0,0.5,0.5,RIGHT_LANE_ONLY,414.0,94.0,0.5,,
17:30:37.977,8.7,MANUAL,0,0,0.0,0.0,0.0,0.5,0.5,RIGHT_LANE_ONLY,413.9,93.9,0.5,,
17:30:39.081,4.6,MANUAL,0,0,0.0,0.0,0.0,0.5,0.5,RIGHT_LANE_ONLY,413.9,93.9,0.5,,
17:30:40.160,8.2,MANUAL,0,0,0.0,0.0,0.0,0.5,0.5,RIGHT_LANE_ONLY,413.8,93.8,0.5,,
17:30:41.189,7.1,MANUAL,0,0,0.0,0.0,0.0,0.5,0.5,RIGHT_LANE_ONLY,413.8,93.8,0.5,,
17:30:42.185,9.4,MANUAL,0,0,0.0,0.0,0.0,0.5,0.5,RIGHT_LANE_ONLY,413.7,93.7,0.5,,
17:30:43.222,7.5,MANUAL,0,0,0.0,0.0,0.0,0.5,0.5,RIGHT_LANE_ONLY,413.8,93.8,0.5,,
17:30:44.251,8.5,MANUAL,0,0,0.0,0.0,0.0,0.5,0.5,RIGHT_LANE_ONLY,413.9,93.9,0.5,,
17:30:45.242,7.5,MANUAL,0,0,0.0,0.0,0.0,0.5,0.5,RIGHT_LANE_ONLY,413.9,93.9,0.5,,
17:30:46.261,9.4,MANUAL,0,0,0.0,0.0,0.0,0.5,0.5,RIGHT_LANE_ONLY,413.9,93.9,0.5,,
17:30:47.287,7.0,MANUAL,0,0,0.0,0.0,0.0,0.5,0.5,RIGHT_LANE_ONLY,414.0,94.0,0.5,,
17:30:48.373,9.2,MANUAL,0,0,0.0,0.0,0.0,0.5,0.5,RIGHT_LANE_ONLY,414.1,94.1,0.5,,
17:30:49.466,7.7,MANUAL,0,0,0.0,0.0,0.0,0.5,0.5,RIGHT_LANE_ONLY,413.9,93.9,0.5,,
17:30:50.537,9.5,MANUAL,0,0,0.0,0.0,0.0,0.5,0.5,RIGHT_LANE_ONLY,414.0,94.0,0.5,,
17:30:51.566,7.5,MANUAL,0,0,0.0,0.0,0.0,0.5,0.5,RIGHT_LANE_ONLY,414.0,94.0,0.5,,
17:30:52.635,9.1,MANUAL,0,0,0.0,0.0,0.0,0.5,0.5,RIGHT_LANE_ONLY,414.1,94.1,0.5,,
17:30:53.632,6.1,MANUAL,0,0,0.0,0.0,0.0,0.5,0.5,RIGHT_LANE_ONLY,414.1,94.1,0.5,,
17:30:54.717,9.3,MANUAL,0,0,0.0,0.0,0.0,0.5,0.5,RIGHT_LANE_ONLY,406.1,86.1,0.5,,car
17:30:55.789,9.0,MANUAL,0,0,0.0,0.0,0.0,0.5,0.5,RIGHT_LANE_ONLY,110.7,-209.3,0.5,,"parking-sign, car"
17:30:56.837,9.0,MANUAL,0,0,0.0,0.0,0.0,0.5,0.5,RIGHT_LANE_ONLY,489.9,169.9,0.5,,car
17:30:57.948,8.8,MANUAL,0,0,0.0,0.0,0.0,0.5,0.5,RIGHT_LANE_ONLY,1143.7,823.7,0.5,,"car, noentry-sign"
17:30:59.031,8.7,MANUAL,0,0,0.0,0.0,0.0,0.5,0.5,RIGHT_LANE_ONLY,351.0,31.0,0.5,,parking-sign
17:31:00.065,9.5,MANUAL,0,0,0.0,0.0,0.0,0.5,0.5,RIGHT_LANE_ONLY,279.5,-40.5,0.5,,"parking-sign, car"
17:31:01.239,5.1,MANUAL,0,0,0.0,0.0,0.0,0.5,0.5,RIGHT_LANE_ONLY,368.3,48.3,0.5,,parking-sign
17:31:02.266,9.2,MANUAL,0,0,0.0,0.0,0.0,0.5,0.5,RIGHT_LANE_ONLY,377.2,57.2,0.5,,
17:31:03.341,9.6,MANUAL,0,0,0.0,0.0,0.0,0.5,0.5,RIGHT_LANE_ONLY,375.8,55.8,0.5,,
17:31:04.342,8.3,MANUAL,0,0,0.0,0.0,0.0,0.5,0.5,RIGHT_LANE_ONLY,375.1,55.1,0.5,,
17:31:05.475,6.2,MANUAL,0,0,0.0,0.0,0.0,0.5,0.5,RIGHT_LANE_ONLY,376.7,56.7,0.5,,pedestrian
17:31:06.493,8.9,MANUAL,0,0,0.0,0.0,0.0,0.5,0.5,RIGHT_LANE_ONLY,379.6,59.6,0.5,,
17:31:07.598,7.7,MANUAL,0,0,0.0,0.0,0.0,0.5,0.5,RIGHT_LANE_ONLY,379.8,59.8,0.5,,car
17:31:08.674,9.2,MANUAL,0,0,0.0,0.0,0.0,0.5,0.5,RIGHT_LANE_ONLY,380.1,60.1,0.5,,pedestrian
17:31:09.728,8.4,MANUAL,0,0,0.0,0.0,0.0,0.5,0.5,RIGHT_LANE_ONLY,379.7,59.7,0.5,,pedestrian
17:31:10.739,9.5,MANUAL,0,0,0.0,0.0,0.0,0.5,0.5,RIGHT_LANE_ONLY,382.2,62.2,0.5,,"pedestrian, car"
17:31:11.809,7.6,MANUAL,0,0,0.0,0.0,0.0,0.5,0.5,RIGHT_LANE_ONLY,381.3,61.3,0.5,,pedestrian
17:31:12.884,9.2,MANUAL,0,0,0.0,0.0,0.0,0.5,0.5,RIGHT_LANE_ONLY,381.3,61.3,0.5,,pedestrian
17:31:13.934,7.6,MANUAL,0,0,0.0,0.0,0.0,0.5,0.5,RIGHT_LANE_ONLY,381.0,61.0,0.5,,
17:31:14.954,9.3,MANUAL,0,0,0.0,0.0,0.0,0.5,0.5,RIGHT_LANE_ONLY,379.1,59.1,0.5,,
17:31:16.062,8.4,MANUAL,0,0,0.0,0.0,0.0,0.5,0.5,RIGHT_LANE_ONLY,374.4,54.4,0.5,,car
17:31:17.157,9.2,MANUAL,0,0,0.0,0.0,0.0,0.5,0.5,RIGHT_LANE_ONLY,370.9,50.9,0.5,,
17:31:18.204,7.8,MANUAL,0,0,0.0,0.0,0.0,0.5,0.5,RIGHT_LANE_ONLY,379.4,59.4,0.5,,
17:31:19.257,9.0,MANUAL,0,0,0.0,0.0,0.0,0.5,0.5,RIGHT_LANE_ONLY,384.0,64.0,0.5,,
17:31:20.354,9.5,MANUAL,0,0,0.0,0.0,0.0,0.5,0.5,RIGHT_LANE_ONLY,380.1,60.1,0.5,,car
17:31:21.424,9.3,MANUAL,0,0,0.0,0.0,0.0,0.5,0.5,RIGHT_LANE_ONLY,371.9,51.9,0.5,,car
17:31:22.435,9.9,MANUAL,0,0,0.0,0.0,0.0,0.5,0.5,RIGHT_LANE_ONLY,370.5,50.5,0.5,,
17:31:23.504,9.5,MANUAL,0,0,0.0,0.0,0.0,0.5,0.5,RIGHT_LANE_ONLY,369.5,49.5,0.5,,
17:31:24.615,8.6,MANUAL,0,0,0.0,0.0,0.0,0.5,0.5,RIGHT_LANE_ONLY,369.1,49.1,0.5,,
17:31:25.626,8.5,MANUAL,0,0,0.0,0.0,0.0,0.5,0.5,RIGHT_LANE_ONLY,370.3,50.3,0.5,,
17:31:26.707,9.7,MANUAL,0,0,0.0,0.0,0.0,0.5,0.5,RIGHT_LANE_ONLY,370.0,50.0,0.5,,car
17:31:27.781,8.7,MANUAL,0,0,0.0,0.0,0.0,0.5,0.5,RIGHT_LANE_ONLY,369.6,49.6,0.5,,car
17:31:28.860,9.2,MANUAL,0,0,0.0,0.0,0.0,0.5,0.5,RIGHT_LANE_ONLY,370.0,50.0,0.5,,car
17:31:29.923,7.3,MANUAL,0,0,0.0,0.0,0.0,0.5,0.5,RIGHT_LANE_ONLY,370.0,50.0,0.5,,car
17:31:31.001,9.0,MANUAL,0,0,0.0,0.0,0.0,0.5,0.5,RIGHT_LANE_ONLY,369.1,49.1,0.5,,car
17:31:32.147,5.0,MANUAL,0,0,0.0,0.0,0.0,0.5,0.5,RIGHT_LANE_ONLY,369.9,49.9,0.5,,car
17:31:33.237,9.6,MANUAL,0,0,0.0,0.0,0.0,0.5,0.5,RIGHT_LANE_ONLY,369.2,49.2,0.5,,car
17:31:34.328,8.4,MANUAL,0,0,0.0,0.0,0.0,0.5,0.5,RIGHT_LANE_ONLY,368.1,48.1,0.5,,car
17:31:35.384,9.4,MANUAL,0,0,0.0,0.0,0.0,0.5,0.5,RIGHT_LANE_ONLY,367.4,47.4,0.5,,car
17:31:36.395,9.4,MANUAL,0,0,0.0,0.0,0.0,0.5,0.5,RIGHT_LANE_ONLY,367.0,47.0,0.5,,car
17:31:37.537,5.2,MANUAL,0,0,0.0,0.0,0.0,0.5,0.5,RIGHT_LANE_ONLY,367.5,47.5,0.5,,car
17:31:38.544,8.9,MANUAL,0,0,0.0,0.0,0.0,0.5,0.5,RIGHT_LANE_ONLY,367.3,47.3,0.5,,car
17:31:39.570,9.6,MANUAL,0,0,0.0,0.0,0.0,0.5,0.5,RIGHT_LANE_ONLY,366.8,46.8,0.5,,car
17:31:40.587,9.6,MANUAL,0,0,0.0,0.0,0.0,0.5,0.5,RIGHT_LANE_ONLY,366.4,46.4,0.5,,car
17:31:41.620,9.1,MANUAL,0,0,0.0,0.0,0.0,0.5,0.5,RIGHT_LANE_ONLY,365.9,45.9,0.5,,car
17:31:42.658,9.3,MANUAL,0,0,0.0,0.0,0.0,0.5,0.5,RIGHT_LANE_ONLY,365.5,45.5,0.5,,car
17:31:43.734,9.4,MANUAL,0,0,0.0,0.0,0.0,0.5,0.5,RIGHT_LANE_ONLY,365.4,45.4,0.5,,car
17:31:44.817,8.7,MANUAL,0,0,0.0,0.0,0.0,0.5,0.5,RIGHT_LANE_ONLY,369.7,49.7,0.5,,car
17:31:45.914,4.8,MANUAL,0,0,0.0,0.0,0.0,0.5,0.5,RIGHT_LANE_ONLY,373.0,53.0,0.5,,car
17:31:46.985,8.9,MANUAL,0,0,0.0,0.0,0.0,0.5,0.5,RIGHT_LANE_ONLY,370.9,50.9,0.5,,car
17:31:48.030,7.3,MANUAL,0,0,0.0,0.0,0.0,0.5,0.5,RIGHT_LANE_ONLY,369.5,49.5,0.5,,car
17:31:49.134,8.6,MANUAL,0,0,0.0,0.0,0.0,0.5,0.5,RIGHT_LANE_ONLY,368.5,48.5,0.5,,car
17:31:50.248,6.8,MANUAL,0,0,0.0,0.0,0.0,0.5,0.5,RIGHT_LANE_ONLY,367.8,47.8,0.5,,car
17:31:51.306,9.0,MANUAL,0,0,0.0,0.0,0.0,0.5,0.5,RIGHT_LANE_ONLY,367.7,47.7,0.5,,car
17:31:52.326,5.6,MANUAL,0,0,0.0,0.0,0.0,0.5,0.5,RIGHT_LANE_ONLY,373.9,53.9,0.5,,
17:31:53.439,7.3,MANUAL,0,0,0.0,0.0,0.0,0.5,0.5,RIGHT_LANE_ONLY,375.5,55.5,0.5,,car
17:31:54.598,4.8,MANUAL,0,0,0.0,0.0,0.0,0.5,0.5,RIGHT_LANE_ONLY,372.3,52.3,0.5,,car
17:31:55.681,8.8,MANUAL,0,0,0.0,0.0,0.0,0.5,0.5,RIGHT_LANE_ONLY,370.7,50.7,0.5,,
17:31:56.707,9.5,MANUAL,0,0,0.0,0.0,0.0,0.5,0.5,RIGHT_LANE_ONLY,369.6,49.6,0.5,,
17:31:57.714,7.1,MANUAL,0,0,0.0,0.0,0.0,0.5,0.5,RIGHT_LANE_ONLY,368.9,48.9,0.5,,car
17:31:58.774,9.2,MANUAL,0,0,0.0,0.0,0.0,0.5,0.5,RIGHT_LANE_ONLY,368.4,48.4,0.5,,car
17:31:59.827,9.1,MANUAL,0,0,0.0,0.0,0.0,0.5,0.5,RIGHT_LANE_ONLY,369.1,49.1,0.5,,car
17:32:00.846,9.5,MANUAL,0,0,0.0,0.0,0.0,0.5,0.5,RIGHT_LANE_ONLY,369.8,49.8,0.5,,car
17:32:01.923,9.8,MANUAL,0,0,0.0,0.0,0.0,0.5,0.5,RIGHT_LANE_ONLY,369.9,49.9,0.5,,car
17:32:03.054,5.2,MANUAL,0,0,0.0,0.0,0.0,0.5,0.5,RIGHT_LANE_ONLY,369.9,49.9,0.5,,car
17:32:04.059,8.8,MANUAL,0,0,0.0,0.0,0.0,0.5,0.5,RIGHT_LANE_ONLY,369.1,49.1,0.5,,car
17:32:05.141,9.6,MANUAL,0,0,0.0,0.0,0.0,0.5,0.5,RIGHT_LANE_ONLY,368.4,48.4,0.5,,car
17:32:06.148,6.7,MANUAL,0,0,0.0,0.0,0.0,0.5,0.5,RIGHT_LANE_ONLY,367.8,47.8,0.5,,car
17:32:07.172,9.1,MANUAL,0,0,0.0,0.0,0.0,0.5,0.5,RIGHT_LANE_ONLY,367.3,47.3,0.5,,car
17:32:08.198,7.1,MANUAL,0,0,0.0,0.0,0.0,0.5,0.5,RIGHT_LANE_ONLY,367.0,47.0,0.5,,car
17:32:09.239,7.8,MANUAL,0,0,0.0,0.0,0.0,0.5,0.5,RIGHT_LANE_ONLY,367.6,47.6,0.5,,
17:32:10.284,6.4,MANUAL,0,0,0.0,0.0,0.0,0.5,0.5,RIGHT_LANE_ONLY,367.9,47.9,0.5,,car
17:32:11.311,9.8,MANUAL,0,0,0.0,0.0,0.0,0.5,0.5,RIGHT_LANE_ONLY,367.8,47.8,0.5,,car
17:32:12.303,7.4,MANUAL,0,0,0.0,0.0,0.0,0.5,0.5,RIGHT_LANE_ONLY,367.4,47.4,0.5,,
17:32:13.380,9.1,MANUAL,0,0,0.0,0.0,0.0,0.5,0.5,RIGHT_LANE_ONLY,366.7,46.7,0.5,,
17:32:14.392,7.3,MANUAL,0,0,0.0,0.0,0.0,0.5,0.5,RIGHT_LANE_ONLY,366.4,46.4,0.5,,car
17:32:15.458,9.7,MANUAL,0,0,0.0,0.0,0.0,0.5,0.5,RIGHT_LANE_ONLY,366.3,46.3,0.5,,
17:32:16.548,9.4,MANUAL,0,0,0.0,0.0,0.0,0.5,0.5,RIGHT_LANE_ONLY,369.2,49.2,0.5,,car
17:32:17.631,9.2,MANUAL,0,0,0.0,0.0,0.0,0.5,0.5,RIGHT_LANE_ONLY,374.5,54.5,0.5,,car
17:32:18.722,9.0,MANUAL,0,0,0.0,0.0,0.0,0.5,0.5,RIGHT_LANE_ONLY,370.7,50.7,0.5,,car
17:32:19.717,4.4,MANUAL,0,0,0.0,0.0,0.0,0.5,0.5,RIGHT_LANE_ONLY,369.4,49.4,0.5,,car
17:32:20.771,3.1,MANUAL,0,0,0.0,0.0,0.0,0.5,0.5,RIGHT_LANE_ONLY,368.8,48.8,0.5,,car
17:32:21.874,8.1,MANUAL,0,0,0.0,0.0,0.0,0.5,0.5,RIGHT_LANE_ONLY,367.8,47.8,0.5,,car
17:32:23.004,6.8,MANUAL,0,0,0.0,0.0,0.0,0.5,0.5,RIGHT_LANE_ONLY,367.2,47.2,0.5,,car
17:32:24.080,6.6,MANUAL,0,0,0.0,0.0,0.0,0.5,0.5,RIGHT_LANE_ONLY,366.8,46.8,0.5,,"car, car"
17:32:25.221,6.0,MANUAL,0,0,0.0,0.0,0.0,0.5,0.5,RIGHT_LANE_ONLY,366.5,46.5,0.5,,car
17:32:26.239,8.5,MANUAL,0,0,0.0,0.0,0.0,0.5,0.5,RIGHT_LANE_ONLY,374.4,54.4,0.5,,car
17:32:27.298,5.2,MANUAL,0,0,0.0,0.0,0.0,0.5,0.5,RIGHT_LANE_ONLY,378.7,58.7,0.5,,car
17:32:28.421,4.9,MANUAL,0,0,0.0,0.0,0.0,0.5,0.5,RIGHT_LANE_ONLY,377.2,57.2,0.5,,
17:32:29.466,6.3,MANUAL,0,0,0.0,0.0,0.0,0.5,0.5,RIGHT_LANE_ONLY,370.5,50.5,0.5,,car
17:32:30.473,6.6,MANUAL,0,0,0.0,0.0,0.0,0.5,0.5,RIGHT_LANE_ONLY,369.4,49.4,0.5,,
17:32:31.572,8.7,MANUAL,0,0,0.0,0.0,0.0,0.5,0.5,RIGHT_LANE_ONLY,368.5,48.5,0.5,,car
17:32:32.618,7.0,MANUAL,0,0,0.0,0.0,0.0,0.5,0.5,RIGHT_LANE_ONLY,370.9,50.9,0.5,,car
17:32:33.705,9.4,MANUAL,0,0,0.0,0.0,0.0,0.5,0.5,RIGHT_LANE_ONLY,376.0,56.0,0.5,,car
17:32:34.703,8.8,MANUAL,0,0,0.0,0.0,0.0,0.5,0.5,RIGHT_LANE_ONLY,376.8,56.8,0.5,,car
17:32:35.702,9.1,MANUAL,0,0,0.0,0.0,0.0,0.5,0.5,RIGHT_LANE_ONLY,377.6,57.6,0.5,,car
17:32:36.728,8.0,MANUAL,0,0,0.0,0.0,0.0,0.5,0.5,RIGHT_LANE_ONLY,378.0,58.0,0.5,,car
17:32:37.755,9.3,MANUAL,0,0,0.0,0.0,0.0,0.5,0.5,RIGHT_LANE_ONLY,378.3,58.3,0.5,,"car, car"
17:32:38.808,8.8,MANUAL,0,0,0.0,0.0,0.0,0.5,0.5,RIGHT_LANE_ONLY,379.0,59.0,0.5,,"car, car"
17:32:39.834,9.3,MANUAL,0,0,0.0,0.0,0.0,0.5,0.5,RIGHT_LANE_ONLY,378.8,58.8,0.5,,car
17:32:40.896,8.2,MANUAL,0,0,0.0,0.0,0.0,0.5,0.5,RIGHT_LANE_ONLY,379.0,59.0,0.5,,car
17:32:41.901,8.0,MANUAL,0,0,0.0,0.0,0.0,0.5,0.5,RIGHT_LANE_ONLY,379.2,59.2,0.5,,car
17:32:42.969,7.4,MANUAL,0,0,0.0,0.0,0.0,0.5,0.5,RIGHT_LANE_ONLY,381.7,61.7,0.5,,
17:32:43.964,9.1,MANUAL,0,0,0.0,0.0,0.0,0.5,0.5,RIGHT_LANE_ONLY,380.2,60.2,0.5,,
17:32:45.123,5.1,MANUAL,0,0,0.0,0.0,0.0,0.5,0.5,RIGHT_LANE_ONLY,379.1,59.1,0.5,,
17:32:46.165,9.0,MANUAL,0,0,0.0,0.0,0.0,0.5,0.5,RIGHT_LANE_ONLY,378.4,58.4,0.5,,
17:32:47.315,6.7,MANUAL,0,0,0.0,0.0,0.0,0.5,0.5,RIGHT_LANE_ONLY,378.0,58.0,0.5,,
17:32:48.325,5.0,MANUAL,0,0,0.0,0.0,0.0,0.5,0.5,RIGHT_LANE_ONLY,377.7,57.7,0.5,,
17:32:49.379,8.8,MANUAL,0,0,0.0,0.0,0.0,0.5,0.5,RIGHT_LANE_ONLY,378.2,58.2,0.5,,
17:32:50.398,8.8,MANUAL,0,0,0.0,0.0,0.0,0.5,0.5,RIGHT_LANE_ONLY,378.9,58.9,0.5,,
17:32:51.456,8.2,MANUAL,0,0,0.0,0.0,0.0,0.5,0.5,RIGHT_LANE_ONLY,379.0,59.0,0.5,,
17:32:52.475,9.1,MANUAL,0,0,0.0,0.0,0.0,0.5,0.5,RIGHT_LANE_ONLY,378.7,58.7,0.5,,
17:32:53.545,9.5,MANUAL,0,0,0.0,0.0,0.0,0.5,0.5,RIGHT_LANE_ONLY,378.3,58.3,0.5,,
17:32:54.556,9.1,MANUAL,0,0,0.0,0.0,0.0,0.5,0.5,RIGHT_LANE_ONLY,378.0,58.0,0.5,,
17:32:55.617,8.4,MANUAL,0,0,0.0,0.0,0.0,0.5,0.5,RIGHT_LANE_ONLY,377.7,57.7,0.5,,car
17:32:56.748,7.4,MANUAL,0,0,0.0,0.0,0.0,0.5,0.5,RIGHT_LANE_ONLY,377.6,57.6,0.5,,car
17:32:57.845,8.9,MANUAL,0,0,0.0,0.0,0.0,0.5,0.5,RIGHT_LANE_ONLY,377.5,57.5,0.5,,
17:32:58.887,7.5,MANUAL,0,0,0.0,0.0,0.0,0.5,0.5,RIGHT_LANE_ONLY,377.4,57.4,0.5,,
17:32:59.914,9.0,MANUAL,0,0,0.0,0.0,0.0,0.5,0.5,RIGHT_LANE_ONLY,377.9,57.9,0.5,,
17:33:00.984,7.3,MANUAL,0,0,0.0,0.0,0.0,0.5,0.5,RIGHT_LANE_ONLY,377.8,57.8,0.5,,
17:33:02.007,9.3,MANUAL,0,0,0.0,0.0,0.0,0.5,0.5,RIGHT_LANE_ONLY,377.5,57.5,0.5,,
17:33:03.022,9.1,MANUAL,0,0,0.0,0.0,0.0,0.5,0.5,RIGHT_LANE_ONLY,377.4,57.4,0.5,,
17:33:04.029,8.7,MANUAL,0,0,0.0,0.0,0.0,0.5,0.5,RIGHT_LANE_ONLY,377.8,57.8,0.5,,
17:33:05.059,6.1,MANUAL,0,0,0.0,0.0,0.0,0.5,0.5,RIGHT_LANE_ONLY,377.8,57.8,0.5,,car
17:33:06.121,9.4,MANUAL,0,0,0.0,0.0,0.0,0.5,0.5,RIGHT_LANE_ONLY,377.6,57.6,0.5,,
17:33:07.186,8.8,MANUAL,0,0,0.0,0.0,0.0,0.5,0.5,RIGHT_LANE_ONLY,378.2,58.2,0.5,,car
17:33:08.266,5.2,MANUAL,0,0,0.0,0.0,0.0,0.5,0.5,RIGHT_LANE_ONLY,379.8,59.8,0.5,,
17:33:09.310,8.7,MANUAL,0,0,0.0,0.0,0.0,0.5,0.5,RIGHT_LANE_ONLY,375.9,55.9,0.5,,
17:33:10.306,9.0,MANUAL,0,0,0.0,0.0,0.0,0.5,0.5,RIGHT_LANE_ONLY,369.7,49.7,0.5,,
17:33:11.315,9.6,MANUAL,0,0,0.0,0.0,0.0,0.5,0.5,RIGHT_LANE_ONLY,368.5,48.5,0.5,,car
17:33:12.405,9.0,MANUAL,0,0,0.0,0.0,0.0,0.5,0.5,RIGHT_LANE_ONLY,367.9,47.9,0.5,,
17:33:13.427,8.5,MANUAL,0,0,0.0,0.0,0.0,0.5,0.5,RIGHT_LANE_ONLY,367.6,47.6,0.5,,car
17:33:14.451,8.5,MANUAL,0,0,0.0,0.0,0.0,0.5,0.5,RIGHT_LANE_ONLY,367.2,47.2,0.5,,car
17:33:15.455,8.9,MANUAL,0,0,0.0,0.0,0.0,0.5,0.5,RIGHT_LANE_ONLY,370.4,50.4,0.5,,
17:33:16.661,4.4,MANUAL,0,0,0.0,0.0,0.0,0.5,0.5,RIGHT_LANE_ONLY,373.8,53.8,0.5,,car
17:33:17.730,9.0,MANUAL,0,0,0.0,0.0,0.0,0.5,0.5,RIGHT_LANE_ONLY,372.6,52.6,0.5,,car
17:33:18.817,9.5,MANUAL,0,0,0.0,0.0,0.0,0.5,0.5,RIGHT_LANE_ONLY,371.9,51.9,0.5,,
17:33:19.900,8.2,MANUAL,0,0,0.0,0.0,0.0,0.5,0.5,RIGHT_LANE_ONLY,383.4,63.4,0.5,,car
17:33:20.949,8.7,MANUAL,0,0,0.0,0.0,0.0,0.5,0.5,RIGHT_LANE_ONLY,383.6,63.6,0.5,,car
17:33:22.011,9.5,MANUAL,0,0,0.0,0.0,0.0,0.5,0.5,RIGHT_LANE_ONLY,381.7,61.7,0.5,,car
17:33:23.118,7.5,MANUAL,0,0,0.0,0.0,0.0,0.5,0.5,RIGHT_LANE_ONLY,373.8,53.8,0.5,,"car, car"
17:33:24.136,9.2,MANUAL,0,0,0.0,0.0,0.0,0.5,0.5,RIGHT_LANE_ONLY,369.3,49.3,0.5,,car
17:33:25.141,4.5,MANUAL,0,0,0.0,0.0,0.0,0.5,0.5,RIGHT_LANE_ONLY,368.1,48.1,0.5,,car
17:33:26.139,9.0,MANUAL,0,0,0.0,0.0,0.0,0.5,0.5,RIGHT_LANE_ONLY,367.3,47.3,0.5,,car
17:33:27.132,7.4,MANUAL,0,0,0.0,0.0,0.0,0.5,0.5,RIGHT_LANE_ONLY,367.0,47.0,0.5,,car
17:33:28.226,9.6,MANUAL,0,0,0.0,0.0,0.0,0.5,0.5,RIGHT_LANE_ONLY,374.4,54.4,0.5,,
17:33:29.314,6.9,MANUAL,0,0,0.0,0.0,0.0,0.5,0.5,RIGHT_LANE_ONLY,375.5,55.5,0.5,,"car, car"
17:33:30.359,9.7,MANUAL,0,0,0.0,0.0,0.0,0.5,0.5,RIGHT_LANE_ONLY,375.9,55.9,0.5,,car
17:33:31.394,8.1,MANUAL,0,0,0.0,0.0,0.0,0.5,0.5,RIGHT_LANE_ONLY,371.9,51.9,0.5,,car
17:33:32.479,8.9,MANUAL,0,0,0.0,0.0,0.0,0.5,0.5,RIGHT_LANE_ONLY,371.3,51.3,0.5,,car
17:33:33.482,4.8,MANUAL,0,0,0.0,0.0,0.0,0.5,0.5,RIGHT_LANE_ONLY,370.7,50.7,0.5,,car
17:33:34.547,9.0,MANUAL,0,0,0.0,0.0,0.0,0.5,0.5,RIGHT_LANE_ONLY,369.7,49.7,0.5,,car
17:33:35.612,9.0,MANUAL,0,0,0.0,0.0,0.0,0.5,0.5,RIGHT_LANE_ONLY,374.5,54.5,0.5,,car
17:33:36.691,9.0,MANUAL,0,0,0.0,0.0,0.0,0.5,0.5,RIGHT_LANE_ONLY,376.3,56.3,0.5,,"car, car"
17:33:37.772,8.9,MANUAL,0,0,0.0,0.0,0.0,0.5,0.5,RIGHT_LANE_ONLY,377.4,57.4,0.5,,car
17:33:38.772,9.3,MANUAL,0,0,0.0,0.0,0.0,0.5,0.5,RIGHT_LANE_ONLY,378.1,58.1,0.5,,car
17:33:39.825,9.4,MANUAL,0,0,0.0,0.0,0.0,0.5,0.5,RIGHT_LANE_ONLY,378.4,58.4,0.5,,car
17:33:40.822,9.1,MANUAL,0,0,0.0,0.0,0.0,0.5,0.5,RIGHT_LANE_ONLY,378.8,58.8,0.5,,car
17:33:41.927,5.4,MANUAL,0,0,0.0,0.0,0.0,0.5,0.5,RIGHT_LANE_ONLY,377.8,57.8,0.5,,car
17:33:43.018,9.4,MANUAL,0,0,0.0,0.0,0.0,0.5,0.5,RIGHT_LANE_ONLY,376.4,56.4,0.5,,car
17:33:44.035,9.8,MANUAL,0,0,0.0,0.0,0.0,0.5,0.5,RIGHT_LANE_ONLY,370.2,50.2,0.5,,car
17:33:45.090,9.6,MANUAL,0,0,0.0,0.0,0.0,0.5,0.5,RIGHT_LANE_ONLY,369.0,49.0,0.5,,car
17:33:46.134,10.0,MANUAL,0,0,0.0,0.0,0.0,0.5,0.5,RIGHT_LANE_ONLY,368.0,48.0,0.5,,
17:33:47.317,4.7,MANUAL,0,0,0.0,0.0,0.0,0.5,0.5,RIGHT_LANE_ONLY,367.3,47.3,0.5,,car
17:33:48.380,9.3,MANUAL,0,0,0.0,0.0,0.0,0.5,0.5,RIGHT_LANE_ONLY,367.3,47.3,0.5,,car
17:33:49.439,6.5,MANUAL,0,0,0.0,0.0,0.0,0.5,0.5,RIGHT_LANE_ONLY,370.3,50.3,0.5,,car
17:33:50.439,7.7,MANUAL,0,0,0.0,0.0,0.0,0.5,0.5,RIGHT_LANE_ONLY,375.0,55.0,0.5,,car
17:33:51.487,6.9,MANUAL,0,0,0.0,0.0,0.0,0.5,0.5,RIGHT_LANE_ONLY,374.9,54.9,0.5,,car
17:33:52.515,8.7,MANUAL,0,0,0.0,0.0,0.0,0.5,0.5,RIGHT_LANE_ONLY,372.9,52.9,0.5,,car
17:33:53.520,7.2,MANUAL,0,0,0.0,0.0,0.0,0.5,0.5,RIGHT_LANE_ONLY,369.5,49.5,0.5,,car
17:33:54.523,9.3,MANUAL,0,0,0.0,0.0,0.0,0.5,0.5,RIGHT_LANE_ONLY,368.5,48.5,0.5,,
17:33:55.556,7.6,MANUAL,0,0,0.0,0.0,0.0,0.5,0.5,RIGHT_LANE_ONLY,368.3,48.3,0.5,,car
17:33:56.636,9.5,MANUAL,0,0,0.0,0.0,0.0,0.5,0.5,RIGHT_LANE_ONLY,368.8,48.8,0.5,,car
17:33:57.675,8.1,MANUAL,0,0,0.0,0.0,0.0,0.5,0.5,RIGHT_LANE_ONLY,373.6,53.6,0.5,,car
17:33:58.665,5.1,MANUAL,0,0,0.0,0.0,0.0,0.5,0.5,RIGHT_LANE_ONLY,374.6,54.6,0.5,,car
17:33:59.671,7.5,MANUAL,0,0,0.0,0.0,0.0,0.5,0.5,RIGHT_LANE_ONLY,370.2,50.2,0.5,,car
17:34:00.765,9.4,MANUAL,0,0,0.0,0.0,0.0,0.5,0.5,RIGHT_LANE_ONLY,368.7,48.7,0.5,,car
17:34:01.786,7.9,MANUAL,0,0,0.0,0.0,0.0,0.5,0.5,RIGHT_LANE_ONLY,367.8,47.8,0.5,,car
17:34:02.843,9.4,MANUAL,0,0,0.0,0.0,0.0,0.5,0.5,RIGHT_LANE_ONLY,367.3,47.3,0.5,,car
17:34:03.856,9.4,MANUAL,0,0,0.0,0.0,0.0,0.5,0.5,RIGHT_LANE_ONLY,373.6,53.6,0.5,,car
17:34:04.851,9.3,MANUAL,0,0,0.0,0.0,0.0,0.5,0.5,RIGHT_LANE_ONLY,374.9,54.9,0.5,,car
17:34:05.873,9.4,MANUAL,0,0,0.0,0.0,0.0,0.5,0.5,RIGHT_LANE_ONLY,370.4,50.4,0.5,,car
17:34:07.047,5.2,MANUAL,0,0,0.0,0.0,0.0,0.5,0.5,RIGHT_LANE_ONLY,369.0,49.0,0.5,,car
17:34:08.068,9.9,MANUAL,0,0,0.0,0.0,0.0,0.5,0.5,RIGHT_LANE_ONLY,368.2,48.2,0.5,,car
17:34:09.177,8.4,MANUAL,0,0,0.0,0.0,0.0,0.5,0.5,RIGHT_LANE_ONLY,371.9,51.9,0.5,,car
17:34:10.253,8.4,MANUAL,0,0,0.0,0.0,0.0,0.5,0.5,RIGHT_LANE_ONLY,375.0,55.0,0.5,,"car, car, car"
17:34:11.258,9.6,MANUAL,0,0,0.0,0.0,0.0,0.5,0.5,RIGHT_LANE_ONLY,371.5,51.5,0.5,,car
17:34:12.388,7.2,MANUAL,0,0,0.0,0.0,0.0,0.5,0.5,RIGHT_LANE_ONLY,368.6,48.6,0.5,,
17:34:13.404,7.5,MANUAL,0,0,0.0,0.0,0.0,0.5,0.5,RIGHT_LANE_ONLY,367.9,47.9,0.5,,
17:34:14.456,6.2,MANUAL,0,0,0.0,0.0,0.0,0.5,0.5,RIGHT_LANE_ONLY,367.4,47.4,0.5,,car
17:34:15.461,7.1,MANUAL,0,0,0.0,0.0,0.0,0.5,0.5,RIGHT_LANE_ONLY,361.6,41.6,0.5,,
17:34:16.548,8.1,MANUAL,0,0,0.0,0.0,0.0,0.5,0.5,RIGHT_LANE_ONLY,359.1,39.1,0.5,,
17:34:17.559,9.3,MANUAL,0,0,0.0,0.0,0.0,0.5,0.5,RIGHT_LANE_ONLY,358.5,38.5,0.5,,
17:34:18.565,8.3,MANUAL,0,0,0.0,0.0,0.0,0.5,0.5,RIGHT_LANE_ONLY,356.4,36.4,0.5,,
17:34:19.664,7.3,MANUAL,0,0,0.0,0.0,0.0,0.5,0.5,RIGHT_LANE_ONLY,363.7,43.7,0.5,,
17:34:20.719,9.1,MANUAL,0,0,0.0,0.0,0.0,0.5,0.5,RIGHT_LANE_ONLY,367.0,47.0,0.5,,car
17:34:21.777,6.7,MANUAL,0,0,0.0,0.0,0.0,0.5,0.5,RIGHT_LANE_ONLY,367.2,47.2,0.5,,
17:34:22.834,10.1,MANUAL,0,0,0.0,0.0,0.0,0.5,0.5,RIGHT_LANE_ONLY,366.8,46.8,0.5,,
17:34:23.854,7.2,MANUAL,0,0,0.0,0.0,0.0,0.5,0.5,RIGHT_LANE_ONLY,366.6,46.6,0.5,,
17:34:24.876,4.9,MANUAL,0,0,0.0,0.0,0.0,0.5,0.5,RIGHT_LANE_ONLY,366.5,46.5,0.5,,
17:34:25.986,8.4,MANUAL,0,0,0.0,0.0,0.0,0.5,0.5,RIGHT_LANE_ONLY,366.3,46.3,0.5,,
17:34:27.012,8.9,MANUAL,0,0,0.0,0.0,0.0,0.5,0.5,RIGHT_LANE_ONLY,372.1,52.1,0.5,,car
17:34:28.020,8.5,MANUAL,0,0,0.0,0.0,0.0,0.5,0.5,RIGHT_LANE_ONLY,373.2,53.2,0.5,,
17:34:29.021,8.8,MANUAL,0,0,0.0,0.0,0.0,0.5,0.5,RIGHT_LANE_ONLY,370.0,50.0,0.5,,
17:34:30.130,8.2,MANUAL,0,0,0.0,0.0,0.0,0.5,0.5,RIGHT_LANE_ONLY,368.6,48.6,0.5,,
17:34:31.164,9.7,MANUAL,0,0,0.0,0.0,0.0,0.5,0.5,RIGHT_LANE_ONLY,367.6,47.6,0.5,,
17:34:32.203,8.3,MANUAL,0,0,0.0,0.0,0.0,0.5,0.5,RIGHT_LANE_ONLY,366.9,46.9,0.5,,
17:34:33.254,8.8,MANUAL,0,0,0.0,0.0,0.0,0.5,0.5,RIGHT_LANE_ONLY,367.0,47.0,0.5,,
17:34:34.336,8.7,MANUAL,0,0,0.0,0.0,0.0,0.5,0.5,RIGHT_LANE_ONLY,367.4,47.4,0.5,,
17:34:35.334,9.2,MANUAL,0,0,0.0,0.0,0.0,0.5,0.5,RIGHT_LANE_ONLY,367.6,47.6,0.5,,
17:34:36.344,8.5,MANUAL,0,0,0.0,0.0,0.0,0.5,0.5,RIGHT_LANE_ONLY,368.1,48.1,0.5,,
17:34:37.334,9.4,MANUAL,0,0,0.0,0.0,0.0,0.5,0.5,RIGHT_LANE_ONLY,368.7,48.7,0.5,,car
17:34:38.349,9.5,MANUAL,0,0,0.0,0.0,0.0,0.5,0.5,RIGHT_LANE_ONLY,368.2,48.2,0.5,,
17:34:39.450,8.9,MANUAL,0,0,0.0,0.0,0.0,0.5,0.5,RIGHT_LANE_ONLY,364.9,44.9,0.5,,
17:34:40.453,9.9,MANUAL,0,0,0.0,0.0,0.0,0.5,0.5,RIGHT_LANE_ONLY,363.6,43.6,0.5,,
17:34:41.507,8.5,MANUAL,0,0,0.0,0.0,0.0,0.5,0.5,RIGHT_LANE_ONLY,362.9,42.9,0.5,,
17:34:42.551,9.5,MANUAL,0,0,0.0,0.0,0.0,0.5,0.5,RIGHT_LANE_ONLY,363.3,43.3,0.5,,
17:34:43.638,9.2,MANUAL,0,0,0.0,0.0,0.0,0.5,0.5,RIGHT_LANE_ONLY,369.9,49.9,0.5,,car
17:34:44.670,9.2,MANUAL,0,0,0.0,0.0,0.0,0.5,0.5,RIGHT_LANE_ONLY,372.6,52.6,0.5,,car
17:34:45.767,9.1,MANUAL,0,0,0.0,0.0,0.0,0.5,0.5,RIGHT_LANE_ONLY,379.2,59.2,0.5,,car
17:34:46.922,5.3,MANUAL,0,0,0.0,0.0,0.0,0.5,0.5,RIGHT_LANE_ONLY,372.3,52.3,0.5,,
17:34:47.918,9.4,MANUAL,0,0,0.0,0.0,0.0,0.5,0.5,RIGHT_LANE_ONLY,369.5,49.5,0.5,,
17:34:48.941,8.7,MANUAL,0,0,0.0,0.0,0.0,0.5,0.5,RIGHT_LANE_ONLY,369.8,49.8,0.5,,
17:34:49.954,9.1,MANUAL,0,0,0.0,0.0,0.0,0.5,0.5,RIGHT_LANE_ONLY,374.8,54.8,0.5,,"car, car"
17:34:51.004,9.9,MANUAL,0,0,0.0,0.0,0.0,0.5,0.5,RIGHT_LANE_ONLY,377.8,57.8,0.5,,car
17:34:52.128,8.1,MANUAL,0,0,0.0,0.0,0.0,0.5,0.5,RIGHT_LANE_ONLY,373.5,53.5,0.5,,car
17:34:53.127,9.4,MANUAL,0,0,0.0,0.0,0.0,0.5,0.5,RIGHT_LANE_ONLY,377.5,57.5,0.5,,car
17:34:54.144,7.7,MANUAL,0,0,0.0,0.0,0.0,0.5,0.5,RIGHT_LANE_ONLY,369.9,49.9,0.5,,car
17:34:55.272,5.4,MANUAL,0,0,0.0,0.0,0.0,0.5,0.5,RIGHT_LANE_ONLY,368.8,48.8,0.5,,car
17:34:56.398,7.4,MANUAL,0,0,0.0,0.0,0.0,0.5,0.5,RIGHT_LANE_ONLY,368.4,48.4,0.5,,
17:34:57.479,10.1,MANUAL,0,0,0.0,0.0,0.0,0.5,0.5,RIGHT_LANE_ONLY,368.1,48.1,0.5,,
17:34:58.520,9.0,MANUAL,0,0,0.0,0.0,0.0,0.5,0.5,RIGHT_LANE_ONLY,367.8,47.8,0.5,,car
17:34:59.540,9.0,MANUAL,0,0,0.0,0.0,0.0,0.5,0.5,RIGHT_LANE_ONLY,370.0,50.0,0.5,,car
17:35:00.677,5.1,MANUAL,0,0,0.0,0.0,0.0,0.5,0.5,RIGHT_LANE_ONLY,373.9,53.9,0.5,,
17:35:01.770,9.8,MANUAL,0,0,0.0,0.0,0.0,0.5,0.5,RIGHT_LANE_ONLY,370.4,50.4,0.5,,
17:35:02.778,9.4,MANUAL,0,0,0.0,0.0,0.0,0.5,0.5,RIGHT_LANE_ONLY,369.0,49.0,0.5,,car
17:35:03.852,8.5,MANUAL,0,0,0.0,0.0,0.0,0.5,0.5,RIGHT_LANE_ONLY,368.2,48.2,0.5,,
17:35:04.942,9.0,MANUAL,0,0,0.0,0.0,0.0,0.5,0.5,RIGHT_LANE_ONLY,368.2,48.2,0.5,,car
17:35:05.962,7.9,MANUAL,0,0,0.0,0.0,0.0,0.5,0.5,RIGHT_LANE_ONLY,368.5,48.5,0.5,,car
17:35:07.013,8.4,MANUAL,0,0,0.0,0.0,0.0,0.5,0.5,RIGHT_LANE_ONLY,368.1,48.1,0.5,,car
17:35:08.124,7.8,MANUAL,0,0,0.0,0.0,0.0,0.5,0.5,RIGHT_LANE_ONLY,367.9,47.9,0.5,,car
17:35:09.121,8.2,MANUAL,0,0,0.0,0.0,0.0,0.5,0.5,RIGHT_LANE_ONLY,367.9,47.9,0.5,,"car, car"
17:35:10.194,8.7,MANUAL,0,0,0.0,0.0,0.0,0.5,0.5,RIGHT_LANE_ONLY,369.3,49.3,0.5,,car
17:35:11.231,9.3,MANUAL,0,0,0.0,0.0,0.0,0.5,0.5,RIGHT_LANE_ONLY,368.9,48.9,0.5,,car
17:35:12.236,9.0,MANUAL,0,0,0.0,0.0,0.0,0.5,0.5,RIGHT_LANE_ONLY,368.1,48.1,0.5,,car
17:35:13.277,9.1,MANUAL,0,0,0.0,0.0,0.0,0.5,0.5,RIGHT_LANE_ONLY,367.6,47.6,0.5,,car
17:35:14.391,7.9,MANUAL,0,0,0.0,0.0,0.0,0.5,0.5,RIGHT_LANE_ONLY,367.6,47.6,0.5,,car
17:35:15.454,9.6,MANUAL,0,0,0.0,0.0,0.0,0.5,0.5,RIGHT_LANE_ONLY,375.1,55.1,0.5,,car
17:35:16.475,7.3,MANUAL,0,0,0.0,0.0,0.0,0.5,0.5,RIGHT_LANE_ONLY,369.0,49.0,0.5,,car
17:35:17.503,5.4,MANUAL,0,0,0.0,0.0,0.0,0.5,0.5,RIGHT_LANE_ONLY,362.4,42.4,0.5,,
17:35:18.553,6.4,MANUAL,0,0,0.0,0.0,0.0,0.5,0.5,RIGHT_LANE_ONLY,363.1,43.1,0.5,,
17:35:19.566,8.7,MANUAL,0,0,0.0,0.0,0.0,0.5,0.5,RIGHT_LANE_ONLY,372.0,52.0,0.5,,
17:35:20.658,8.1,MANUAL,0,0,0.0,0.0,0.0,0.5,0.5,RIGHT_LANE_ONLY,369.0,49.0,0.5,,car
17:35:21.717,9.2,MANUAL,0,0,0.0,0.0,0.0,0.5,0.5,RIGHT_LANE_ONLY,370.8,50.8,0.5,,
17:35:22.805,7.4,MANUAL,0,0,0.0,0.0,0.0,0.5,0.5,RIGHT_LANE_ONLY,378.3,58.3,0.5,,"car, car"
17:35:23.868,8.4,MANUAL,0,0,0.0,0.0,0.0,0.5,0.5,RIGHT_LANE_ONLY,380.2,60.2,0.5,,
17:35:24.965,8.3,MANUAL,0,0,0.0,0.0,0.0,0.5,0.5,RIGHT_LANE_ONLY,376.8,56.8,0.5,,
17:35:26.029,8.9,MANUAL,0,0,0.0,0.0,0.0,0.5,0.5,RIGHT_LANE_ONLY,377.6,57.6,0.5,,
17:35:27.020,9.2,MANUAL,0,0,0.0,0.0,0.0,0.5,0.5,RIGHT_LANE_ONLY,381.6,61.6,0.5,,
17:35:28.126,9.0,MANUAL,0,0,0.0,0.0,0.0,0.5,0.5,RIGHT_LANE_ONLY,380.0,60.0,0.5,,
17:35:29.180,8.6,MANUAL,0,0,0.0,0.0,0.0,0.5,0.5,RIGHT_LANE_ONLY,380.5,60.5,0.5,,
17:35:30.198,9.1,MANUAL,0,0,0.0,0.0,0.0,0.5,0.5,RIGHT_LANE_ONLY,380.1,60.1,0.5,,
17:35:31.242,8.8,MANUAL,0,0,0.0,0.0,0.0,0.5,0.5,RIGHT_LANE_ONLY,379.5,59.5,0.5,,car
17:35:32.341,9.3,MANUAL,0,0,0.0,0.0,0.0,0.5,0.5,RIGHT_LANE_ONLY,372.7,52.7,0.5,,
17:35:33.412,9.6,MANUAL,0,0,0.0,0.0,0.0,0.5,0.5,RIGHT_LANE_ONLY,371.5,51.5,0.5,,
17:35:34.466,4.5,MANUAL,0,0,0.0,0.0,0.0,0.5,0.5,RIGHT_LANE_ONLY,378.5,58.5,0.5,,car
17:35:35.547,9.4,MANUAL,0,0,0.0,0.0,0.0,0.5,0.5,RIGHT_LANE_ONLY,370.0,50.0,0.5,,
17:35:36.571,8.1,MANUAL,0,0,0.0,0.0,0.0,0.5,0.5,RIGHT_LANE_ONLY,368.7,48.7,0.5,,
17:35:37.658,9.1,MANUAL,0,0,0.0,0.0,0.0,0.5,0.5,RIGHT_LANE_ONLY,378.2,58.2,0.5,,car
17:35:38.671,8.5,MANUAL,0,0,0.0,0.0,0.0,0.5,0.5,RIGHT_LANE_ONLY,372.1,52.1,0.5,,
17:35:39.763,7.3,MANUAL,0,0,0.0,0.0,0.0,0.5,0.5,RIGHT_LANE_ONLY,369.2,49.2,0.5,,
17:35:40.787,6.5,MANUAL,0,0,0.0,0.0,0.0,0.5,0.5,RIGHT_LANE_ONLY,368.3,48.3,0.5,,car
17:35:41.832,8.7,MANUAL,0,0,0.0,0.0,0.0,0.5,0.5,RIGHT_LANE_ONLY,367.7,47.7,0.5,,
17:35:42.868,7.4,MANUAL,0,0,0.0,0.0,0.0,0.5,0.5,RIGHT_LANE_ONLY,373.4,53.4,0.5,,
17:35:43.867,9.3,MANUAL,0,0,0.0,0.0,0.0,0.5,0.5,RIGHT_LANE_ONLY,376.1,56.1,0.5,,car
17:35:44.970,7.4,MANUAL,0,0,0.0,0.0,0.0,0.5,0.5,RIGHT_LANE_ONLY,375.7,55.7,0.5,,
17:35:46.058,5.0,MANUAL,0,0,0.0,0.0,0.0,0.5,0.5,RIGHT_LANE_ONLY,377.8,57.8,0.5,,car
17:35:47.144,9.9,MANUAL,0,0,0.0,0.0,0.0,0.5,0.5,RIGHT_LANE_ONLY,377.8,57.8,0.5,,
17:35:48.135,8.7,MANUAL,0,0,0.0,0.0,0.0,0.5,0.5,RIGHT_LANE_ONLY,371.9,51.9,0.5,,car
17:35:49.159,8.0,MANUAL,0,0,0.0,0.0,0.0,0.5,0.5,RIGHT_LANE_ONLY,370.7,50.7,0.5,,
17:35:50.250,8.6,MANUAL,0,0,0.0,0.0,0.0,0.5,0.5,RIGHT_LANE_ONLY,381.0,61.0,0.5,,car
17:35:51.362,7.4,MANUAL,0,0,0.0,0.0,0.0,0.5,0.5,RIGHT_LANE_ONLY,380.7,60.7,0.5,,
17:35:52.412,8.9,MANUAL,0,0,0.0,0.0,0.0,0.5,0.5,RIGHT_LANE_ONLY,381.5,61.5,0.5,,car
17:35:53.482,9.7,MANUAL,0,0,0.0,0.0,0.0,0.5,0.5,RIGHT_LANE_ONLY,380.2,60.2,0.5,,
17:35:54.541,6.0,MANUAL,0,0,0.0,0.0,0.0,0.5,0.5,RIGHT_LANE_ONLY,380.8,60.8,0.5,,
17:35:55.594,8.0,MANUAL,0,0,0.0,0.0,0.0,0.5,0.5,RIGHT_LANE_ONLY,381.1,61.1,0.5,,
17:35:56.682,9.5,MANUAL,0,0,0.0,0.0,0.0,0.5,0.5,RIGHT_LANE_ONLY,381.3,61.3,0.5,,"car, car"
17:35:57.719,9.3,MANUAL,0,0,0.0,0.0,0.0,0.5,0.5,RIGHT_LANE_ONLY,381.4,61.4,0.5,,car
17:35:58.793,9.3,MANUAL,0,0,0.0,0.0,0.0,0.5,0.5,RIGHT_LANE_ONLY,376.3,56.3,0.5,,car
17:35:59.898,8.5,MANUAL,0,0,0.0,0.0,0.0,0.5,0.5,RIGHT_LANE_ONLY,369.8,49.8,0.5,,car
17:36:00.997,7.4,MANUAL,0,0,0.0,0.0,0.0,0.5,0.5,RIGHT_LANE_ONLY,355.5,35.5,0.5,,
17:36:02.032,9.5,MANUAL,0,0,0.0,0.0,0.0,0.5,0.5,RIGHT_LANE_ONLY,354.0,34.0,0.5,,car
17:36:03.059,6.6,MANUAL,0,0,0.0,0.0,0.0,0.5,0.5,RIGHT_LANE_ONLY,353.0,33.0,0.5,,car
17:36:04.060,8.7,MANUAL,0,0,0.0,0.0,0.0,0.5,0.5,RIGHT_LANE_ONLY,359.9,39.9,0.5,,car
17:36:05.053,7.0,MANUAL,0,0,0.0,0.0,0.0,0.5,0.5,RIGHT_LANE_ONLY,365.1,45.1,0.5,,car
17:36:06.129,7.4,MANUAL,0,0,0.0,0.0,0.0,0.5,0.5,RIGHT_LANE_ONLY,372.2,52.2,0.5,,"car, car"
17:36:07.139,7.6,MANUAL,0,0,0.0,0.0,0.0,0.5,0.5,RIGHT_LANE_ONLY,377.1,57.1,0.5,,car
17:36:08.158,8.6,MANUAL,0,0,0.0,0.0,0.0,0.5,0.5,RIGHT_LANE_ONLY,377.2,57.2,0.5,,"car, car"
17:36:09.157,7.4,MANUAL,0,0,0.0,0.0,0.0,0.5,0.5,RIGHT_LANE_ONLY,377.9,57.9,0.5,,car
17:36:10.203,8.9,MANUAL,0,0,0.0,0.0,0.0,0.5,0.5,RIGHT_LANE_ONLY,377.8,57.8,0.5,,"car, car"
17:36:11.239,8.8,MANUAL,0,0,0.0,0.0,0.0,0.5,0.5,RIGHT_LANE_ONLY,378.4,58.4,0.5,,car
17:36:12.245,9.7,MANUAL,0,0,0.0,0.0,0.0,0.5,0.5,RIGHT_LANE_ONLY,371.0,51.0,0.5,,car
17:36:13.262,8.3,MANUAL,0,0,0.0,0.0,0.0,0.5,0.5,RIGHT_LANE_ONLY,369.4,49.4,0.5,,car
17:36:14.276,8.8,MANUAL,0,0,0.0,0.0,0.0,0.5,0.5,RIGHT_LANE_ONLY,368.0,48.0,0.5,,"car, car"
17:36:15.364,7.4,MANUAL,0,0,0.0,0.0,0.0,0.5,0.5,RIGHT_LANE_ONLY,367.4,47.4,0.5,,"car, car"
17:36:16.373,8.9,MANUAL,0,0,0.0,0.0,0.0,0.5,0.5,RIGHT_LANE_ONLY,367.2,47.2,0.5,,"car, car"
17:36:17.554,5.0,MANUAL,0,0,0.0,0.0,0.0,0.5,0.5,RIGHT_LANE_ONLY,369.7,49.7,0.5,,car
17:36:18.564,9.4,MANUAL,0,0,0.0,0.0,0.0,0.5,0.5,RIGHT_LANE_ONLY,377.6,57.6,0.5,,"car, car"
17:36:19.632,8.8,MANUAL,0,0,0.0,0.0,0.0,0.5,0.5,RIGHT_LANE_ONLY,370.8,50.8,0.5,,car
17:36:20.630,9.5,MANUAL,0,0,0.0,0.0,0.0,0.5,0.5,RIGHT_LANE_ONLY,369.9,49.9,0.5,,car
17:36:21.663,10.4,MANUAL,0,0,0.0,0.0,0.0,0.5,0.5,RIGHT_LANE_ONLY,369.9,49.9,0.5,,car
17:36:22.753,9.2,MANUAL,0,0,0.0,0.0,0.0,0.5,0.5,RIGHT_LANE_ONLY,369.8,49.8,0.5,,car
17:36:23.755,9.3,MANUAL,0,0,0.0,0.0,0.0,0.5,0.5,RIGHT_LANE_ONLY,369.3,49.3,0.5,,"car, car"
17:36:24.759,9.2,MANUAL,0,0,0.0,0.0,0.0,0.5,0.5,RIGHT_LANE_ONLY,368.6,48.6,0.5,,car
17:36:25.895,4.8,MANUAL,0,0,0.0,0.0,0.0,0.5,0.5,RIGHT_LANE_ONLY,378.5,58.5,0.5,,"car, car"
17:36:26.913,8.0,MANUAL,0,0,0.0,0.0,0.0,0.5,0.5,RIGHT_LANE_ONLY,370.1,50.1,0.5,,car
17:36:27.936,8.9,MANUAL,0,0,0.0,0.0,0.0,0.5,0.5,RIGHT_LANE_ONLY,369.7,49.7,0.5,,car
17:36:28.983,8.9,MANUAL,0,0,0.0,0.0,0.0,0.5,0.5,RIGHT_LANE_ONLY,369.9,49.9,0.5,,car
17:36:30.038,9.5,MANUAL,0,0,0.0,0.0,0.0,0.5,0.5,RIGHT_LANE_ONLY,362.0,42.0,0.5,,car
17:36:31.087,10.5,MANUAL,0,0,0.0,0.0,0.0,0.5,0.5,RIGHT_LANE_ONLY,359.7,39.7,0.5,,car
17:36:32.120,8.4,MANUAL,0,0,0.0,0.0,0.0,0.5,0.5,RIGHT_LANE_ONLY,359.5,39.5,0.5,,car
17:36:33.221,9.0,MANUAL,0,0,0.0,0.0,0.0,0.5,0.5,RIGHT_LANE_ONLY,364.5,44.5,0.5,,car
17:36:34.296,7.5,MANUAL,0,0,0.0,0.0,0.0,0.5,0.5,RIGHT_LANE_ONLY,377.0,57.0,0.5,,"car, car"
17:36:35.387,7.5,MANUAL,0,0,0.0,0.0,0.0,0.5,0.5,RIGHT_LANE_ONLY,381.8,61.8,0.5,,"car, car"
17:36:36.413,8.4,MANUAL,0,0,0.0,0.0,0.0,0.5,0.5,RIGHT_LANE_ONLY,378.1,58.1,0.5,,car
17:36:37.435,6.9,MANUAL,0,0,0.0,0.0,0.0,0.5,0.5,RIGHT_LANE_ONLY,369.9,49.9,0.5,,"car, car"
17:36:38.518,9.6,MANUAL,0,0,0.0,0.0,0.0,0.5,0.5,RIGHT_LANE_ONLY,370.0,50.0,0.5,,car
17:36:39.586,7.3,MANUAL,0,0,0.0,0.0,0.0,0.5,0.5,RIGHT_LANE_ONLY,369.7,49.7,0.5,,car
17:36:40.670,8.8,MANUAL,0,0,0.0,0.0,0.0,0.5,0.5,RIGHT_LANE_ONLY,366.5,46.5,0.5,,"car, car"
17:36:41.721,8.8,MANUAL,0,0,0.0,0.0,0.0,0.5,0.5,RIGHT_LANE_ONLY,359.8,39.8,0.5,,car
17:36:42.784,9.1,MANUAL,0,0,0.0,0.0,0.0,0.5,0.5,RIGHT_LANE_ONLY,360.0,40.0,0.5,,car
17:36:43.797,9.5,MANUAL,0,0,0.0,0.0,0.0,0.5,0.5,RIGHT_LANE_ONLY,381.8,61.8,0.5,,car
17:36:44.791,8.7,MANUAL,0,0,0.0,0.0,0.0,0.5,0.5,RIGHT_LANE_ONLY,370.7,50.7,0.5,,"car, car"
17:36:45.789,9.0,MANUAL,0,0,0.0,0.0,0.0,0.5,0.5,RIGHT_LANE_ONLY,377.5,57.5,0.5,,car
17:36:46.807,8.9,MANUAL,0,0,0.0,0.0,0.0,0.5,0.5,RIGHT_LANE_ONLY,372.5,52.5,0.5,,car
17:36:47.832,9.1,MANUAL,0,0,0.0,0.0,0.0,0.5,0.5,RIGHT_LANE_ONLY,369.7,49.7,0.5,,"car, car"
17:36:48.892,9.2,MANUAL,0,0,0.0,0.0,0.0,0.5,0.5,RIGHT_LANE_ONLY,363.6,43.6,0.5,,car
17:36:49.941,8.2,MANUAL,0,0,0.0,0.0,0.0,0.5,0.5,RIGHT_LANE_ONLY,363.4,43.4,0.5,,car
17:36:51.032,9.6,MANUAL,0,0,0.0,0.0,0.0,0.5,0.5,RIGHT_LANE_ONLY,366.3,46.3,0.5,,"car, car"
17:36:52.073,9.6,MANUAL,0,0,0.0,0.0,0.0,0.5,0.5,RIGHT_LANE_ONLY,366.7,46.7,0.5,,car
17:36:53.160,9.6,MANUAL,0,0,0.0,0.0,0.0,0.5,0.5,RIGHT_LANE_ONLY,367.8,47.8,0.5,,car
17:36:54.179,8.8,MANUAL,0,0,0.0,0.0,0.0,0.5,0.5,RIGHT_LANE_ONLY,375.1,55.1,0.5,,car
17:36:55.261,8.5,MANUAL,0,0,0.0,0.0,0.0,0.5,0.5,RIGHT_LANE_ONLY,370.5,50.5,0.5,,"car, car"
17:36:56.322,9.4,MANUAL,0,0,0.0,0.0,0.0,0.5,0.5,RIGHT_LANE_ONLY,357.9,37.9,0.5,,car
17:36:57.391,9.8,MANUAL,0,0,0.0,0.0,0.0,0.5,0.5,RIGHT_LANE_ONLY,357.5,37.5,0.5,,car
17:36:58.427,10.1,MANUAL,0,0,0.0,0.0,0.0,0.5,0.5,RIGHT_LANE_ONLY,356.6,36.6,0.5,,car
17:36:59.500,8.7,MANUAL,0,0,0.0,0.0,0.0,0.5,0.5,RIGHT_LANE_ONLY,362.6,42.6,0.5,,car
17:37:00.563,9.6,MANUAL,0,0,0.0,0.0,0.0,0.5,0.5,RIGHT_LANE_ONLY,364.0,44.0,0.5,,car
17:37:01.631,7.6,MANUAL,0,0,0.0,0.0,0.0,0.5,0.5,RIGHT_LANE_ONLY,367.2,47.2,0.5,,car
17:37:02.654,8.6,MANUAL,0,0,0.0,0.0,0.0,0.5,0.5,RIGHT_LANE_ONLY,367.4,47.4,0.5,,"car, car"
17:37:03.759,8.0,MANUAL,0,0,0.0,0.0,0.0,0.5,0.5,RIGHT_LANE_ONLY,373.5,53.5,0.5,,car
17:37:04.798,8.7,MANUAL,0,0,0.0,0.0,0.0,0.5,0.5,RIGHT_LANE_ONLY,364.2,44.2,0.5,,car
17:37:05.827,7.5,MANUAL,0,0,0.0,0.0,0.0,0.5,0.5,RIGHT_LANE_ONLY,374.2,54.2,0.5,,"car, car"
17:37:06.914,9.1,MANUAL,0,0,0.0,0.0,0.0,0.5,0.5,RIGHT_LANE_ONLY,369.7,49.7,0.5,,car
